{"type":"FeatureCollection","features":[{"geometry": {"type": "Point", "coordinates": [-147.79967179424762, 64.837219210038938]}, "type": "Feature", "id": 0, "properties": {"FCLASS": "14", "STTNKEY": "02000530", "CONFIDENCE": 3.0, "AADT": 15330, "STTNID": "000530", "YEAR_GEO": 2001.0, "STPOSTAL": "AK", "LONGITUDE": -147.799672235, "CTFIPS": "90", "VERSION": "01", "LOCATION": "IRPORT WAY BETWEEN MARKET STREET AND UNIVERSITY A", "NHS": 3, "LATITUDE": 64.837218810699994, "STFIPS": "02"}},{"geometry": {"type": "Point", "coordinates": [-147.56570479402967, 64.818031210021218]}, "type": "Feature", "id": 1, "properties": {"COMMENT": "Poor Location Description", "FCLASS": "17", "CONFIDENCE": 2.0, "AADT": 10620, "STTNID": "000531", "YEAR_GEO": 2001.0, "STPOSTAL": "AK", "LONGITUDE": -147.56570437100001, "CTFIPS": "90", "LATITUDE": 64.818031262399998, "VERSION": "01", "LOCATION": "EST END BADGER LOOP ROAD (NB)", "NHS": 0, "STTNKEY": "02000531", "STFIPS": "02"}},{"geometry": {"type": "Point", "coordinates": [-147.8030367942506, 64.849282210050205]}, "type": "Feature", "id": 2, "properties": {"FCLASS": "14", "STTNKEY": "02000532", "CONFIDENCE": 2.0, "AADT": 20866, "STTNID": "000532", "YEAR_GEO": 2001.0, "STPOSTAL": "AK", "LONGITUDE": -147.803037292, "CTFIPS": "90", "VERSION": "01", "LOCATION": "OHANSEN EXPRESSWAY EAST OF UNIVERSITY AVENUE (EB)", "NHS": 7, "LATITUDE": 64.849281732400001, "STFIPS": "02"}},{"geometry": {"type": "Point", "coordinates": [-131.64000477919762, 55.34476120119848]}, "type": "Feature", "id": 3, "properties": {"COMMENT": "Not on NHPN", "STTNKEY": "02000800", "CONFIDENCE": 2.0, "AADT": 0, "STTNID": "000800", "YEAR_GEO": 2001.0, "STPOSTAL": "AK", "LONGITUDE": -131.64000446099999, "CTFIPS": "0", "VERSION": "01", "LOCATION": "AWDEN PTR BTW DOCK & PARK   KETCHIKAN", "NHS": 0, "LATITUDE": 55.3447613588, "STFIPS": "02"}},{"geometry": {"type": "Point", "coordinates": [-131.71156277926434, 55.377654201229007]}, "type": "Feature", "id": 4, "properties": {"STTNKEY": "02000801", "CONFIDENCE": 3.0, "AADT": 0, "STTNID": "000801", "YEAR_GEO": 2001.0, "STPOSTAL": "AK", "LONGITUDE": -131.711562921, "CTFIPS": "130", "VERSION": "01", "LOCATION": "TONGASS BTW S & N JCTS W/SHORELINE DR, KETCHIKAN", "NHS": 0, "LATITUDE": 55.377654213600003, "STFIPS": "02"}},{"geometry": {"type": "Point", "coordinates": [-133.0880777805462, 55.550582201390171]}, "type": "Feature", "id": 5, "properties": {"COMMENT": "Not on NHPN", "FCLASS": "7", "CONFIDENCE": 3.0, "AADT": 2028, "STTNID": "000802", "YEAR_GEO": 2001.0, "STPOSTAL": "AK", "LONGITUDE": -133.088077653, "CTFIPS": "0", "LATITUDE": 55.550582345400002, "VERSION": "01", "LOCATION": "RAIG/KLAWOCK/HOLLIS HWY BTW KLAWOCK R. BR. & BAYV", "NHS": 0, "STTNKEY": "02000802", "STFIPS": "02"}},{"geometry": {"type": "Point", "coordinates": [-132.36461977987256, 56.467185202243854]}, "type": "Feature", "id": 6, "properties": {"FCLASS": "7", "STTNKEY": "02000803", "CONFIDENCE": 3.0, "AADT": 2113, "STTNID": "000803", "YEAR_GEO": 2001.0, "STPOSTAL": "AK", "LONGITUDE": -132.36461973499999, "CTFIPS": "280", "VERSION": "01", "LOCATION": "RANGELL PTR: ZIMOVIA HWY BTW BENNET & CASE   WRAN", "NHS": 0, "LATITUDE": 56.467185556300002, "STFIPS": "02"}},{"geometry": {"type": "Point", "coordinates": [-132.95190178041935, 56.776219202531593]}, "type": "Feature", "id": 7, "properties": {"FCLASS": "7", "STTNKEY": "02000804", "CONFIDENCE": 3.0, "AADT": 1081, "STTNID": "000804", "YEAR_GEO": 2001.0, "STPOSTAL": "AK", "LONGITUDE": -132.951901827, "CTFIPS": "280", "VERSION": "01", "LOCATION": "ITKOF HWY PTR, S JCT SCOW BAY LOOP - USFS WAREHOU", "NHS": 0, "LATITUDE": 56.776219048800002, "STFIPS": "02"}},{"geometry": {"type": "Point", "coordinates": [-134.73337778207861, 58.383147204028091]}, "type": "Feature", "id": 8, "properties": {"FCLASS": "16", "STTNKEY": "02000805", "CONFIDENCE": 3.0, "AADT": 2019, "STTNID": "000805", "YEAR_GEO": 2001.0, "STPOSTAL": "AK", "LONGITUDE": -134.73337817300001, "CTFIPS": "110", "VERSION": "01", "LOCATION": "LACIER HWY BTW N LENA & AUKE BAY FERRY TERMINAL", "NHS": 0, "LATITUDE": 58.383147409499998, "STFIPS": "02"}},{"geometry": {"type": "Point", "coordinates": [-135.33126978263545, 57.05290820278924]}, "type": "Feature", "id": 9, "properties": {"FCLASS": "16", "STTNKEY": "02000808", "CONFIDENCE": 3.0, "AADT": 10370, "STTNID": "000808", "YEAR_GEO": 2001.0, "STPOSTAL": "AK", "LONGITUDE": -135.331270112, "CTFIPS": "220", "VERSION": "01", "LOCATION": "ALIBUT PT RD BTW KATLIAN & MARINE STS, SITKA", "NHS": 8, "LATITUDE": 57.0529082909, "STFIPS": "02"}},{"geometry": {"type": "Point", "coordinates": [-135.474787782769, 59.245472204831231]}, "type": "Feature", "id": 10, "properties": {"FCLASS": "2", "STTNKEY": "02000809", "CONFIDENCE": 3.0, "AADT": 955, "STTNID": "000809", "YEAR_GEO": 2001.0, "STPOSTAL": "AK", "LONGITUDE": -135.47478787099999, "CTFIPS": "100", "VERSION": "01", "LOCATION": "AINES HWY BTW SAWMILL & AIRPORT RDS 1200 FT N OF", "NHS": 7, "LATITUDE": 59.245471908399999, "STFIPS": "02"}},{"geometry": {"type": "Point", "coordinates": [-149.37304379571287, 60.485216205985807]}, "type": "Feature", "id": 11, "properties": {"COMMENT": "Poor Location Description", "STTNKEY": "02MOOSEP", "CONFIDENCE": 2.0, "AADT": 0, "STTNID": "MOOSEP", "YEAR_GEO": 1999.0, "STPOSTAL": "AK", "LONGITUDE": -149.37304424600001, "CTFIPS": "112", "VERSION": "01", "LOCATION": "MOOSE PASS MAINTENANCE STATION-ON SEWARD HWY (PERM", "NHS": 3, "LATITUDE": 60.485216371299998, "STFIPS": "02"}},{"geometry": {"type": "Point", "coordinates": [-149.75486879606842, 62.900676208235382]}, "type": "Feature", "id": 12, "properties": {"COMMENT": "Poor Location Description", "FCLASS": "1", "CONFIDENCE": 1.0, "AADT": 1193, "STTNID": "000101", "YEAR_GEO": 2001.0, "STPOSTAL": "AK", "LONGITUDE": -149.75486876100001, "CTFIPS": "170", "LATITUDE": 62.900676390999998, "VERSION": "01", "LOCATION": "HULITNA - NB", "NHS": 1, "STTNKEY": "02000101", "STFIPS": "02"}},{"geometry": {"type": "Point", "coordinates": [-149.79474779610564, 61.058918206520048]}, "type": "Feature", "id": 13, "properties": {"COMMENT": "Not on NHPN", "FCLASS": "11", "CONFIDENCE": 3.0, "AADT": 9333, "STTNID": "000104", "YEAR_GEO": 2001.0, "STPOSTAL": "AK", "LONGITUDE": -149.794747788, "CTFIPS": "0", "LATITUDE": 61.058918209799998, "VERSION": "01", "LOCATION": "OTTER II - NB", "NHS": 0, "STTNKEY": "02000104", "STFIPS": "02"}},{"geometry": {"type": "Point", "coordinates": [-151.8314377980023, 59.78589720533455]}, "type": "Feature", "id": 14, "properties": {"COMMENT": "Poor Location Description", "FCLASS": "2", "CONFIDENCE": 2.0, "AADT": 2581, "STTNID": "000105", "YEAR_GEO": 2001.0, "STPOSTAL": "AK", "LONGITUDE": -151.83143797700001, "CTFIPS": "112", "LATITUDE": 59.785897292800001, "VERSION": "01", "LOCATION": "NCHOR POINT - NB", "NHS": 7, "STTNKEY": "02000105", "STFIPS": "02"}},{"geometry": {"type": "Point", "coordinates": [-149.21003279556112, 61.599813207023999]}, "type": "Feature", "id": 15, "properties": {"FCLASS": "6", "STTNKEY": "02000106", "CONFIDENCE": 3.0, "AADT": 14414, "STTNID": "000106", "YEAR_GEO": 1999.0, "STPOSTAL": "AK", "LONGITUDE": -149.21003315600001, "CTFIPS": "170", "VERSION": "01", "LOCATION": "PALMER/WASILLA PTR, 1 MILE EAST OF TRUNK RD - EB", "NHS": 0, "LATITUDE": 61.5998131809, "STFIPS": "02"}},{"geometry": {"type": "Point", "coordinates": [-150.89709379713213, 60.51445820601316]}, "type": "Feature", "id": 16, "properties": {"FCLASS": "1", "STTNKEY": "02000107", "CONFIDENCE": 3.0, "AADT": 8305, "STTNID": "000107", "YEAR_GEO": 2001.0, "STPOSTAL": "AK", "LONGITUDE": -150.89709385099999, "CTFIPS": "112", "VERSION": "01", "LOCATION": "TERLING HWY--6 MI E. OF SOLDOTNA-EB", "NHS": 1, "LATITUDE": 60.514457821500002, "STFIPS": "02"}},{"geometry": {"type": "Point", "coordinates": [-149.78512879609661, 61.181426206634342]}, "type": "Feature", "id": 17, "properties": {"FCLASS": "14", "STTNKEY": "02000109", "CONFIDENCE": 3.0, "AADT": 40432, "STTNID": "000109", "YEAR_GEO": 2001.0, "STPOSTAL": "AK", "LONGITUDE": -149.785128329, "CTFIPS": "20", "VERSION": "01", "LOCATION": "UDOR ROAD-.3 MILES WEST OF BONIFACE ROAD-EB", "NHS": 7, "LATITUDE": 61.181426100499998, "STFIPS": "02"}},{"geometry": {"type": "Point", "coordinates": [-150.04593979633955, 61.739941207154516]}, "type": "Feature", "id": 18, "properties": {"FCLASS": "1", "STTNKEY": "02000110", "CONFIDENCE": 3.0, "AADT": 3003, "STTNID": "000110", "YEAR_GEO": 2001.0, "STPOSTAL": "AK", "LONGITUDE": -150.045939941, "CTFIPS": "170", "VERSION": "01", "LOCATION": "ILLOW II - NB", "NHS": 1, "LATITUDE": 61.7399414303, "STFIPS": "02"}},{"geometry": {"type": "Point", "coordinates": [-151.49599979769005, 59.63707520519597]}, "type": "Feature", "id": 19, "properties": {"COMMENT": "Sterling Hwy does not extend south of Homer Airport", "FCLASS": "2", "CONFIDENCE": 2.0, "AADT": 4145, "STTNID": "000111", "YEAR_GEO": 2001.0, "STPOSTAL": "AK", "LONGITUDE": -151.49599996800001, "CTFIPS": "112", "LATITUDE": 59.6370750321, "VERSION": "01", "LOCATION": "TERLING HWY--S. OF HOMER AIRPORT-NB", "NHS": 0, "STTNKEY": "02000111", "STFIPS": "02"}},{"geometry": {"type": "Point", "coordinates": [-149.83177979614015, 61.153862206608665]}, "type": "Feature", "id": 20, "properties": {"COMMENT": "Not on NHPN", "FCLASS": "16", "CONFIDENCE": 3.0, "AADT": 24573, "STTNID": "000112", "YEAR_GEO": 2001.0, "STPOSTAL": "AK", "LONGITUDE": -149.831779576, "CTFIPS": "0", "LATITUDE": 61.1538622574, "VERSION": "01", "LOCATION": "AKE OTIS PKWY, S OF 74TH AVE - NB", "NHS": 0, "STTNKEY": "02000112", "STFIPS": "02"}},{"geometry": {"type": "Point", "coordinates": [-151.50785079770094, 59.652969205210866]}, "type": "Feature", "id": 21, "properties": {"COMMENT": "Poor Location Description", "STTNKEY": "02000113", "CONFIDENCE": 2.0, "AADT": 0, "STTNID": "000113", "YEAR_GEO": 2001.0, "STPOSTAL": "AK", "LONGITUDE": -151.50785089999999, "CTFIPS": "112", "VERSION": "01", "LOCATION": "OMER II, EAST END RD - EB", "NHS": 0, "LATITUDE": 59.652968902399998, "STFIPS": "02"}},{"geometry": {"type": "Point", "coordinates": [-152.44937779857787, 57.782285203468518]}, "type": "Feature", "id": 22, "properties": {"FCLASS": "16", "STTNKEY": "02000114", "CONFIDENCE": 3.0, "AADT": 5219, "STTNID": "000114", "YEAR_GEO": 2001.0, "STPOSTAL": "AK", "LONGITUDE": -152.44937782700001, "CTFIPS": "150", "VERSION": "01", "LOCATION": "EZANOF DRIVE, KODIAK - W OF GIBSON COVE RD (FIXED", "NHS": 8, "LATITUDE": 57.782284875400002, "STFIPS": "02"}},{"geometry": {"type": "Point", "coordinates": [-148.92367179529424, 60.805506206284235]}, "type": "Feature", "id": 23, "properties": {"STTNKEY": "02000115", "CONFIDENCE": 3.0, "AADT": 0, "STTNID": "000115", "YEAR_GEO": 2001.0, "STPOSTAL": "AK", "LONGITUDE": -148.92367218499999, "CTFIPS": "20", "VERSION": "01", "LOCATION": "ORTAGE GLACIER RD (2 MI E OF SEWARD HWY - EB", "NHS": 8, "LATITUDE": 60.805506331499998, "STFIPS": "02"}},{"geometry": {"type": "Point", "coordinates": [-149.85774079616431, 61.124124206580973]}, "type": "Feature", "id": 24, "properties": {"FCLASS": "16", "STTNKEY": "02000116", "CONFIDENCE": 3.0, "AADT": 15881, "STTNID": "000116", "YEAR_GEO": 2001.0, "STPOSTAL": "AK", "LONGITUDE": -149.85774128899999, "CTFIPS": "20", "VERSION": "01", "LOCATION": "'MALLEY RD-.15 EAST OF NEW SEWARD HWY-EB", "NHS": 7, "LATITUDE": 61.124124245499999, "STFIPS": "02"}},{"geometry": {"type": "Point", "coordinates": [-149.88030779618521, 61.204273206655444]}, "type": "Feature", "id": 25, "properties": {"COMMENT": "Not on NHPN", "FCLASS": "16", "CONFIDENCE": 2.0, "AADT": 34773, "STTNID": "000117", "YEAR_GEO": 2001.0, "STPOSTAL": "AK", "LONGITUDE": -149.88030798599999, "CTFIPS": "0", "LATITUDE": 61.204272943900001, "VERSION": "01", "LOCATION": "ST- AT CHESTER CRK-NB", "NHS": 0, "STTNKEY": "02000117", "STFIPS": "02"}},{"geometry": {"type": "Point", "coordinates": [-149.88114279618594, 61.173891206627331]}, "type": "Feature", "id": 26, "properties": {"COMMENT": "Not on NHPN", "FCLASS": "16", "CONFIDENCE": 3.0, "AADT": 16944, "STTNID": "000118", "YEAR_GEO": 2001.0, "STPOSTAL": "AK", "LONGITUDE": -149.88114320899999, "CTFIPS": "0", "LATITUDE": 61.173891265199998, "VERSION": "01", "LOCATION": "NT'L AIRPORT RD-0.1 MI EAST OF C ST.-EB", "NHS": 0, "STTNKEY": "02000118", "STFIPS": "02"}},{"geometry": {"type": "Point", "coordinates": [-149.41678879575352, 61.428089206863888]}, "type": "Feature", "id": 27, "properties": {"STTNKEY": "02000120", "CONFIDENCE": 3.0, "AADT": 0, "STTNID": "000120", "YEAR_GEO": 2001.0, "STPOSTAL": "AK", "LONGITUDE": -149.416789196, "CTFIPS": "20", "VERSION": "01", "LOCATION": "LENN HWY, AT MIRROR LAKE - NB", "NHS": 1, "LATITUDE": 61.428088833499999, "STFIPS": "02"}},{"geometry": {"type": "Point", "coordinates": [-149.89638279620021, 61.143301206598835]}, "type": "Feature", "id": 28, "properties": {"COMMENT": "Not on NHPN", "FCLASS": "16", "CONFIDENCE": 3.0, "AADT": 35012, "STTNID": "000121", "YEAR_GEO": 2001.0, "STPOSTAL": "AK", "LONGITUDE": -149.89638276100001, "CTFIPS": "0", "LATITUDE": 61.143300756499997, "VERSION": "01", "LOCATION": "IMOND BLVD-WEST OF ARCTIC-EB", "NHS": 0, "STTNKEY": "02000121", "STFIPS": "02"}},{"geometry": {"type": "Point", "coordinates": [-149.86401079617008, 61.202363206653672]}, "type": "Feature", "id": 29, "properties": {"COMMENT": "Not on NHPN", "FCLASS": "11", "CONFIDENCE": 2.0, "AADT": 54218, "STTNID": "000122", "YEAR_GEO": 2001.0, "STPOSTAL": "AK", "LONGITUDE": -149.86401104000001, "CTFIPS": "0", "LATITUDE": 61.202362986099999, "VERSION": "01", "LOCATION": "NGRA @ CHESTER CREEK - NB", "NHS": 0, "STTNKEY": "02000122", "STFIPS": "02"}},{"geometry": {"type": "Point", "coordinates": [-148.84372779521982, 61.714375207130615]}, "type": "Feature", "id": 30, "properties": {"FCLASS": "1", "STTNKEY": "02000123", "CONFIDENCE": 2.0, "AADT": 2723, "STTNID": "000123", "YEAR_GEO": 2001.0, "STPOSTAL": "AK", "LONGITUDE": -148.84372819800001, "CTFIPS": "170", "VERSION": "01", "LOCATION": "LENN HWY, AT MP53 (N OF PALMER) - NB", "NHS": 1, "LATITUDE": 61.714375102399998, "STFIPS": "02"}},{"geometry": {"type": "Point", "coordinates": [-149.80326679611358, 61.218603206668831]}, "type": "Feature", "id": 31, "properties": {"COMMENT": "Not on NHPN", "STTNKEY": "02000125", "CONFIDENCE": 1.0, "AADT": 0, "STTNID": "000125", "YEAR_GEO": 2001.0, "STPOSTAL": "AK", "LONGITUDE": -149.80326639, "CTFIPS": "0", "VERSION": "01", "LOCATION": "AST 5TH AVE, E OF AIRPORT HTS - EB", "NHS": 0, "LATITUDE": 61.218602760899998, "STFIPS": "02"}},{"geometry": {"type": "Point", "coordinates": [-149.91020279621307, 61.204848206656152]}, "type": "Feature", "id": 32, "properties": {"STTNKEY": "02000126", "CONFIDENCE": 3.0, "AADT": 0, "STTNID": "000126", "YEAR_GEO": 1999.0, "STPOSTAL": "AK", "LONGITUDE": -149.91020238799999, "CTFIPS": "20", "VERSION": "01", "LOCATION": "MINNESOTA DR @ CHESTER CREEK (EXCLUDING SPENARD ON", "NHS": 7, "LATITUDE": 61.204848011999999, "STFIPS": "02"}},{"geometry": {"type": "Point", "coordinates": [-151.10452279732544, 60.553311206049329]}, "type": "Feature", "id": 33, "properties": {"COMMENT": "Poor Location Description", "FCLASS": "2", "CONFIDENCE": 1.0, "AADT": 8793, "STTNID": "000127", "YEAR_GEO": 2001.0, "STPOSTAL": "AK", "LONGITUDE": -151.10452248999999, "CTFIPS": "112", "LATITUDE": 60.553311168599997, "VERSION": "01", "LOCATION": "ENAI SPUR - EB", "NHS": 8, "STTNKEY": "02000127", "STFIPS": "02"}},{"geometry": {"type": "Point", "coordinates": [-148.98950879535573, 60.81839320629615]}, "type": "Feature", "id": 34, "properties": {"COMMENT": "Poor Location Description", "STTNKEY": "02000128", "CONFIDENCE": 2.0, "AADT": 0, "STTNID": "000128", "YEAR_GEO": 2001.0, "STPOSTAL": "AK", "LONGITUDE": -148.989508989, "CTFIPS": "20", "VERSION": "01", "LOCATION": "LACER RIVER - NB", "NHS": 1, "LATITUDE": 60.818393030899998, "STFIPS": "02"}},{"geometry": {"type": "Point", "coordinates": [-149.97987779627806, 61.14809920660332]}, "type": "Feature", "id": 35, "properties": {"COMMENT": "Not on NHPN - Poor location description", "FCLASS": "17", "CONFIDENCE": 2.0, "AADT": 2807, "STTNID": "000129", "YEAR_GEO": 2001.0, "STPOSTAL": "AK", "LONGITUDE": -149.979878023, "CTFIPS": "0", "LATITUDE": 61.148099676500003, "VERSION": "01", "LOCATION": "AND LAKE - NB", "NHS": 0, "STTNKEY": "02000129", "STFIPS": "02"}},{"geometry": {"type": "Point", "coordinates": [-149.79774179610831, 61.198905206650579]}, "type": "Feature", "id": 36, "properties": {"COMMENT": "Not on NHPN, Poor location description", "FCLASS": "16", "CONFIDENCE": 1.0, "AADT": 41595, "STTNID": "000131", "YEAR_GEO": 2001.0, "STPOSTAL": "AK", "LONGITUDE": -149.79774195100001, "CTFIPS": "0", "LATITUDE": 61.198905511100001, "VERSION": "01", "LOCATION": "AST NORTHERN LIGHTS BLVD (PTR) - EB", "NHS": 0, "STTNKEY": "02000131", "STFIPS": "02"}},{"geometry": {"type": "Point", "coordinates": [-149.54437179587239, 61.311142206754994]}, "type": "Feature", "id": 37, "properties": {"COMMENT": "Not on NHPN", "FCLASS": "16", "CONFIDENCE": 3.0, "AADT": 8097, "STTNID": "000132", "YEAR_GEO": 2001.0, "STPOSTAL": "AK", "LONGITUDE": -149.544371536, "CTFIPS": "0", "LATITUDE": 61.311141895299997, "VERSION": "01", "LOCATION": "AGLE RIVER RD, AT CARIBOU ST - EB", "NHS": 0, "STTNKEY": "02000132", "STFIPS": "02"}},{"geometry": {"type": "Point", "coordinates": [-149.3898577957284, 61.573044206998929]}, "type": "Feature", "id": 38, "properties": {"COMMENT": "Poor Location Description", "STTNKEY": "02000133", "CONFIDENCE": 1.0, "AADT": 0, "STTNID": "000133", "YEAR_GEO": 2001.0, "STPOSTAL": "AK", "LONGITUDE": -149.38985816900001, "CTFIPS": "170", "VERSION": "01", "LOCATION": "ARKS HWY, AT NYE FORD - EB", "NHS": 1, "LATITUDE": 61.573044279800001, "STFIPS": "02"}},{"geometry": {"type": "Point", "coordinates": [-149.37303579571289, 60.485284205985863]}, "type": "Feature", "id": 39, "properties": {"COMMENT": "Poor Location Description", "STTNKEY": "02000135", "CONFIDENCE": 2.0, "AADT": 0, "STTNID": "000135", "YEAR_GEO": 1999.0, "STPOSTAL": "AK", "LONGITUDE": -149.37303572299999, "CTFIPS": "112", "VERSION": "01", "LOCATION": "MOOSE PASS MAINTENANCE STATION-ON SEWARD HWY (PERM", "NHS": 3, "LATITUDE": 60.485284068200002, "STFIPS": "02"}},{"geometry": {"type": "Point", "coordinates": [-149.85377879616067, 61.152361206607111]}, "type": "Feature", "id": 40, "properties": {"STTNKEY": "02000143", "CONFIDENCE": 3.0, "AADT": 0, "STTNID": "000143", "YEAR_GEO": 2001.0, "STPOSTAL": "AK", "LONGITUDE": -149.85377834499999, "CTFIPS": "20", "VERSION": "01", "LOCATION": "EWARD HWY-S OF 76TH ONRAMP-NB", "NHS": 1, "LATITUDE": 61.152360722799997, "STFIPS": "02"}},{"geometry": {"type": "Point", "coordinates": [-149.45947379579343, 60.511598206010376]}, "type": "Feature", "id": 41, "properties": {"COMMENT": "Poor Location Description", "FCLASS": "2", "CONFIDENCE": 2.0, "AADT": 1740, "STTNID": "000180", "YEAR_GEO": 2001.0, "STPOSTAL": "AK", "LONGITUDE": -149.459473624, "CTFIPS": "112", "LATITUDE": 60.511598038199999, "VERSION": "01", "LOCATION": "OOSE PASS BY FISH HATCHERY-ON SEWARD HWY (PERM RE", "NHS": 3, "STTNKEY": "02000180", "STFIPS": "02"}},{"geometry": {"type": "Point", "coordinates": [-149.91020179621319, 61.204849206656036]}, "type": "Feature", "id": 42, "properties": {"FCLASS": "14", "STTNKEY": "02000237", "CONFIDENCE": 3.0, "AADT": 35329, "STTNID": "000237", "YEAR_GEO": 2001.0, "STPOSTAL": "AK", "LONGITUDE": -149.91020166300001, "CTFIPS": "20", "VERSION": "01", "LOCATION": "INNESOTA DR @ CHESTER CREEK (EXCLUDING SPENARD ON", "NHS": 7, "LATITUDE": 61.204849113400002, "STFIPS": "02"}},{"geometry": {"type": "Point", "coordinates": [-143.00405978978119, 63.306031208612922]}, "type": "Feature", "id": 43, "properties": {"FCLASS": "1", "STTNKEY": "02000502", "CONFIDENCE": 3.0, "AADT": 991, "STTNID": "000502", "YEAR_GEO": 2001.0, "STPOSTAL": "AK", "LONGITUDE": -143.00405965900001, "CTFIPS": "240", "VERSION": "01", "LOCATION": "** TOK *** TOK CUTOFF AT TOK JUNCTION (EB)", "NHS": 1, "LATITUDE": 63.306030910799997, "STFIPS": "02"}},{"geometry": {"type": "Point", "coordinates": [-141.4518547883356, 62.845142208183688]}, "type": "Feature", "id": 44, "properties": {"COMMENT": "Poor Location Description", "FCLASS": "1", "CONFIDENCE": 2.0, "AADT": 406, "STTNID": "000503", "YEAR_GEO": 2001.0, "STPOSTAL": "AK", "LONGITUDE": -141.45185504599999, "CTFIPS": "240", "LATITUDE": 62.845142435500001, "VERSION": "01", "LOCATION": "LASKA HIGHWAY AT GARDINER CREEK MAINT CAMP (EB)", "NHS": 1, "STTNKEY": "02000503", "STFIPS": "02"}},{"geometry": {"type": "Point", "coordinates": [-147.70091079415556, 64.844631210045918]}, "type": "Feature", "id": 45, "properties": {"FCLASS": "14", "STTNKEY": "02000504", "CONFIDENCE": 3.0, "AADT": 26819, "STTNID": "000504", "YEAR_GEO": 2001.0, "STPOSTAL": "AK", "LONGITUDE": -147.70091123, "CTFIPS": "90", "VERSION": "01", "LOCATION": "TEESE EXPRESSWAY, CHENA BRIDGE (NB)", "NHS": 2, "LATITUDE": 64.844631407099996, "STFIPS": "02"}},{"geometry": {"type": "Point", "coordinates": [-145.47808179208528, 62.138952207526017]}, "type": "Feature", "id": 46, "properties": {"FCLASS": "1", "STTNKEY": "02000505", "CONFIDENCE": 3.0, "AADT": 1121, "STTNID": "000505", "YEAR_GEO": 2001.0, "STPOSTAL": "AK", "LONGITUDE": -145.47808208999999, "CTFIPS": "261", "VERSION": "01", "LOCATION": "ICHARDSON HIGHWAY AT GULKANA AIRFIELD (NB)", "NHS": 1, "LATITUDE": 62.138952009999997, "STFIPS": "02"}},{"geometry": {"type": "Point", "coordinates": [-147.55417079401877, 64.973668210166124]}, "type": "Feature", "id": 47, "properties": {"COMMENT": "Location description not precise", "FCLASS": "6", "CONFIDENCE": 2.0, "AADT": 1513, "STTNID": "000506", "YEAR_GEO": 2001.0, "STPOSTAL": "AK", "LONGITUDE": -147.55417031799999, "CTFIPS": "90", "LATITUDE": 64.973668022200002, "VERSION": "01", "LOCATION": "TEESE HIGHWAY, NORTH OF FOX (EB)", "NHS": 0, "STTNKEY": "02000506", "STFIPS": "02"}},{"geometry": {"type": "Point", "coordinates": [-147.70362079415804, 64.85146821005219]}, "type": "Feature", "id": 48, "properties": {"FCLASS": "16", "STTNKEY": "02000507", "CONFIDENCE": 3.0, "AADT": 16305, "STTNID": "000507", "YEAR_GEO": 2001.0, "STPOSTAL": "AK", "LONGITUDE": -147.70362033399999, "CTFIPS": "90", "VERSION": "01", "LOCATION": "OLLEGE ROAD AT BENTLEY MALL (EB)", "NHS": 0, "LATITUDE": 64.8514687065, "STFIPS": "02"}},{"geometry": {"type": "Point", "coordinates": [-145.79302079237868, 63.414140208713661]}, "type": "Feature", "id": 49, "properties": {"STTNKEY": "02000508", "CONFIDENCE": 3.0, "AADT": 0, "STTNID": "000508", "YEAR_GEO": 1999.0, "STPOSTAL": "AK", "LONGITUDE": -145.79302092500001, "CTFIPS": "240", "VERSION": "01", "LOCATION": "RICHARDSON HIGHWAY AT TRIMS CAMP (NB)", "NHS": 3, "LATITUDE": 63.4141398549, "STFIPS": "02"}},{"geometry": {"type": "Point", "coordinates": [-147.63249279409183, 64.979661210171571]}, "type": "Feature", "id": 50, "properties": {"COMMENT": "Description not precise", "FCLASS": "2", "CONFIDENCE": 2.0, "AADT": 1071, "STTNID": "000510", "YEAR_GEO": 2001.0, "STPOSTAL": "AK", "LONGITUDE": -147.63249252200001, "CTFIPS": "90", "LATITUDE": 64.979661449800005, "VERSION": "01", "LOCATION": "LLIOTT HIGHWAY, NORTH OF FOX (NB)", "NHS": 2, "STTNKEY": "02000510", "STFIPS": "02"}},{"geometry": {"type": "Point", "coordinates": [-145.12008779175198, 61.429550206865315]}, "type": "Feature", "id": 51, "properties": {"STTNKEY": "02000511", "CONFIDENCE": 3.0, "AADT": 0, "STTNID": "000511", "YEAR_GEO": 2001.0, "STPOSTAL": "AK", "LONGITUDE": -145.120087904, "CTFIPS": "261", "VERSION": "01", "LOCATION": "ICHARDSON HIGHWAY AT ERNESTINE (NB)", "NHS": 3, "LATITUDE": 61.4295506833, "STFIPS": "02"}},{"geometry": {"type": "Point", "coordinates": [-149.09647979545525, 64.562052209782678]}, "type": "Feature", "id": 52, "properties": {"FCLASS": "1", "STTNKEY": "02000512", "CONFIDENCE": 3.0, "AADT": 1534, "STTNID": "000512", "YEAR_GEO": 2001.0, "STPOSTAL": "AK", "LONGITUDE": -149.096479356, "CTFIPS": "290", "VERSION": "01", "LOCATION": "ARKS HIGHWAY AT NENANA (NB)", "NHS": 1, "LATITUDE": 64.562051847099994, "STFIPS": "02"}},{"geometry": {"type": "Point", "coordinates": [-146.91483479342355, 61.984855207382452]}, "type": "Feature", "id": 53, "properties": {"COMMENT": "Poor Location Description", "FCLASS": "1", "CONFIDENCE": 1.0, "AADT": 877, "STTNID": "000513", "YEAR_GEO": 2001.0, "STPOSTAL": "AK", "LONGITUDE": -146.914834883, "CTFIPS": "261", "LATITUDE": 61.984855239700003, "VERSION": "01", "LOCATION": "LENN HIGHWAY AT NELCHINA MAINTENANCE STATION (NB)", "NHS": 1, "STTNKEY": "02000513", "STFIPS": "02"}},{"geometry": {"type": "Point", "coordinates": [-146.25689879281072, 61.120181206577172]}, "type": "Feature", "id": 54, "properties": {"FCLASS": "11", "STTNKEY": "02000514", "CONFIDENCE": 3.0, "AADT": 24092, "STTNID": "000514", "YEAR_GEO": 2001.0, "STPOSTAL": "AK", "LONGITUDE": -146.25689923600001, "CTFIPS": "261", "VERSION": "01", "LOCATION": "ICHARDSON HIGHWAY AT 3 MILE (EB)", "NHS": 3, "LATITUDE": 61.120181484900002, "STFIPS": "02"}},{"geometry": {"type": "Point", "coordinates": [-147.99878379443294, 64.846678210047685]}, "type": "Feature", "id": 55, "properties": {"FCLASS": "1", "STTNKEY": "02000515", "CONFIDENCE": 3.0, "AADT": 2290, "STTNID": "000515", "YEAR_GEO": 2001.0, "STPOSTAL": "AK", "LONGITUDE": -147.99878397500001, "CTFIPS": "90", "VERSION": "01", "LOCATION": "ARKS HIGHWAY AT ESTER (NB)", "NHS": 1, "LATITUDE": 64.846678242899998, "STFIPS": "02"}},{"geometry": {"type": "Point", "coordinates": [-147.84298479428776, 64.843040210044364]}, "type": "Feature", "id": 56, "properties": {"FCLASS": "11", "STTNKEY": "02000516", "CONFIDENCE": 3.0, "AADT": 14775, "STTNID": "000516", "YEAR_GEO": 2001.0, "STPOSTAL": "AK", "LONGITUDE": -147.84298451500001, "CTFIPS": "90", "VERSION": "01", "LOCATION": "ARKS HIGHWAY, CHENA BRIDGE (NB)", "NHS": 1, "LATITUDE": 64.843039833099994, "STFIPS": "02"}},{"geometry": {"type": "Point", "coordinates": [-147.75514379420611, 64.822095210024827]}, "type": "Feature", "id": 57, "properties": {"FCLASS": "11", "STTNKEY": "02000517", "CONFIDENCE": 3.0, "AADT": 13511, "STTNID": "000517", "YEAR_GEO": 2001.0, "STPOSTAL": "AK", "LONGITUDE": -147.75514344600001, "CTFIPS": "90", "VERSION": "01", "LOCATION": "ARKS HIGHWAY AT LATHROP STREET (EB)", "NHS": 1, "LATITUDE": 64.8220948206, "STFIPS": "02"}},{"geometry": {"type": "Point", "coordinates": [-147.75065479420186, 64.837330210038999]}, "type": "Feature", "id": 58, "properties": {"FCLASS": "14", "STTNKEY": "02000518", "CONFIDENCE": 3.0, "AADT": 18499, "STTNID": "000518", "YEAR_GEO": 2001.0, "STPOSTAL": "AK", "LONGITUDE": -147.750654672, "CTFIPS": "90", "VERSION": "01", "LOCATION": "IRPORT WAY BETWEEN LATHROP STREET AND WILBUR STRE", "NHS": 3, "LATITUDE": 64.837329815999993, "STFIPS": "02"}},{"geometry": {"type": "Point", "coordinates": [-146.34143579288934, 61.131324206587578]}, "type": "Feature", "id": 59, "properties": {"FCLASS": "2", "STTNKEY": "02000519", "CONFIDENCE": 3.0, "AADT": 4670, "STTNID": "000519", "YEAR_GEO": 2001.0, "STPOSTAL": "AK", "LONGITUDE": -146.34143561400001, "CTFIPS": "261", "VERSION": "01", "LOCATION": "** VALDEZ *** RICHARDSON HIGHWAY AT VALDEZ (NB)", "NHS": 3, "LATITUDE": 61.131324600100001, "STFIPS": "02"}},{"geometry": {"type": "Point", "coordinates": [-147.67565379413213, 64.87129821007079]}, "type": "Feature", "id": 60, "properties": {"COMMENT": "Not on NHPN, Poor location description", "FCLASS": "7", "CONFIDENCE": 2.0, "AADT": 6543, "STTNID": "000520", "YEAR_GEO": 2001.0, "STPOSTAL": "AK", "LONGITUDE": -147.67565364800001, "CTFIPS": "0", "LATITUDE": 64.871297833499995, "VERSION": "01", "LOCATION": "ARMERS LOOP ROAD WEST OF STEESE EXPRESSWAY (NB)", "NHS": 0, "STTNKEY": "02000520", "STFIPS": "02"}},{"geometry": {"type": "Point", "coordinates": [-147.40797579388277, 64.847822210048889]}, "type": "Feature", "id": 61, "properties": {"COMMENT": "Not on NHPN", "FCLASS": "17", "CONFIDENCE": 3.0, "AADT": 1702, "STTNID": "000521", "YEAR_GEO": 2001.0, "STPOSTAL": "AK", "LONGITUDE": -147.40797529700001, "CTFIPS": "0", "LATITUDE": 64.8478224208, "VERSION": "01", "LOCATION": "ORDALE ROAD, CHENA BRIDGE (NB)", "NHS": 0, "STTNKEY": "02000521", "STFIPS": "02"}},{"geometry": {"type": "Point", "coordinates": [-147.81017679425736, 64.843698210044977]}, "type": "Feature", "id": 62, "properties": {"FCLASS": "14", "STTNKEY": "02000522", "CONFIDENCE": 3.0, "AADT": 18133, "STTNID": "000522", "YEAR_GEO": 2001.0, "STPOSTAL": "AK", "LONGITUDE": -147.810177205, "CTFIPS": "90", "VERSION": "01", "LOCATION": "NIVERSITY AVENUE, CHENA BRIDGE (NB)", "NHS": 0, "LATITUDE": 64.8436985222, "STFIPS": "02"}},{"geometry": {"type": "Point", "coordinates": [-147.77603279422556, 64.842801210044172]}, "type": "Feature", "id": 63, "properties": {"COMMENT": "Not on NHPN", "FCLASS": "16", "CONFIDENCE": 3.0, "AADT": 15309, "STTNID": "000523", "YEAR_GEO": 2001.0, "STPOSTAL": "AK", "LONGITUDE": -147.77603270099999, "CTFIPS": "0", "LATITUDE": 64.842801401000003, "VERSION": "01", "LOCATION": "EGER ROAD, CHENA BRIDGE (NB)", "NHS": 0, "STTNKEY": "02000523", "STFIPS": "02"}},{"geometry": {"type": "Point", "coordinates": [-147.71905979417238, 64.844707210045954]}, "type": "Feature", "id": 64, "properties": {"COMMENT": "Not on NHPN", "FCLASS": "16", "CONFIDENCE": 3.0, "AADT": 15224, "STTNID": "000524", "YEAR_GEO": 2001.0, "STPOSTAL": "AK", "LONGITUDE": -147.719059531, "CTFIPS": "0", "LATITUDE": 64.844707530700006, "VERSION": "01", "LOCATION": "USHMAN STREET, CHENA BRIDGE (NB)", "NHS": 0, "STTNKEY": "02000524", "STFIPS": "02"}},{"geometry": {"type": "Point", "coordinates": [-147.70910579416318, 64.845627210046814]}, "type": "Feature", "id": 65, "properties": {"COMMENT": "Couldn't find Wendell cross w/ Chena , Not on NHPN", "FCLASS": "16", "CONFIDENCE": 2.0, "AADT": 9521, "STTNID": "000525", "YEAR_GEO": 1999.0, "STPOSTAL": "AK", "LONGITUDE": -147.70910603799999, "CTFIPS": "0", "LATITUDE": 64.845626872500006, "VERSION": "01", "LOCATION": "WENDELL STREET, CHENA BRIDGE (NB)", "NHS": 0, "STTNKEY": "02000525", "STFIPS": "02"}},{"geometry": {"type": "Point", "coordinates": [-147.70754879416177, 64.835862210037703]}, "type": "Feature", "id": 66, "properties": {"FCLASS": "14", "STTNKEY": "02000526", "CONFIDENCE": 3.0, "AADT": 16553, "STTNID": "000526", "YEAR_GEO": 2001.0, "STPOSTAL": "AK", "LONGITUDE": -147.70754835700001, "CTFIPS": "90", "VERSION": "01", "LOCATION": "IRPORT WAY BETWEEN STEESE EXPWY AND NOBLE STREET", "NHS": 3, "LATITUDE": 64.835862536600004, "STFIPS": "02"}},{"geometry": {"type": "Point", "coordinates": [-147.80061779424841, 64.857118210057479]}, "type": "Feature", "id": 67, "properties": {"FCLASS": "16", "STTNKEY": "02000527", "CONFIDENCE": 3.0, "AADT": 8628, "STTNID": "000527", "YEAR_GEO": 2001.0, "STPOSTAL": "AK", "LONGITUDE": -147.80061741099999, "CTFIPS": "90", "VERSION": "01", "LOCATION": "OLLEGE ROAD EAST OF HAYES STREET (EB)", "NHS": 0, "LATITUDE": 64.857118463800006, "STFIPS": "02"}},{"geometry": {"type": "Point", "coordinates": [-147.13976479363282, 64.702877209913822]}, "type": "Feature", "id": 68, "properties": {"FCLASS": "1", "STTNKEY": "02000528", "CONFIDENCE": 3.0, "AADT": 9426, "STTNID": "000528", "YEAR_GEO": 2001.0, "STPOSTAL": "AK", "LONGITUDE": -147.139765197, "CTFIPS": "90", "VERSION": "01", "LOCATION": "ICHARDSON HIGHWAY AT MOOSE CREEK (EB)", "NHS": 1, "LATITUDE": 64.702876814500002, "STFIPS": "02"}},{"geometry": {"type": "Point", "coordinates": [-147.56570579402955, 64.818029210020995]}, "type": "Feature", "id": 69, "properties": {"COMMENT": "Poor Location Description", "FCLASS": "17", "CONFIDENCE": 2.0, "AADT": 7807, "STTNID": "000529", "YEAR_GEO": 2001.0, "STPOSTAL": "AK", "LONGITUDE": -147.56570555799999, "CTFIPS": "90", "LATITUDE": 64.818029062500003, "VERSION": "01", "LOCATION": "AST END BADGER LOOP ROAD (NB)", "NHS": 0, "STTNKEY": "02000529", "STFIPS": "02"}},{"geometry": {"type": "Point", "coordinates": [-111.88191276079647, 48.459063194785585]}, "type": "Feature", "id": 70, "properties": {"FCLASS": "1", "STTNKEY": "30000061", "CONFIDENCE": 3.0, "AADT": 2721, "STTNID": "000061", "YEAR_GEO": 1999.0, "STPOSTAL": "MT", "LONGITUDE": -111.88191227999999, "CTFIPS": "101", "VERSION": "01", "LOCATION": "JUST N OF MARIAS INT MP 359.5", "NHS": 1, "LATITUDE": 48.459062872099999, "STFIPS": "30"}},{"geometry": {"type": "Point", "coordinates": [-114.34602976309134, 47.833847194203372]}, "type": "Feature", "id": 71, "properties": {"FCLASS": "2", "STTNKEY": "30000062", "CONFIDENCE": 3.0, "AADT": 4073, "STTNID": "000062", "YEAR_GEO": 1999.0, "STPOSTAL": "MT", "LONGITUDE": -114.34602937699999, "CTFIPS": "47", "VERSION": "01", "LOCATION": "00.8 MILES N. OF ELMO M.P.78.0", "NHS": 7, "LATITUDE": 47.833847678799998, "STFIPS": "30"}},{"geometry": {"type": "Point", "coordinates": [-105.98729975530682, 45.561690192087326]}, "type": "Feature", "id": 72, "properties": {"FCLASS": "2", "STTNKEY": "30000063", "CONFIDENCE": 3.0, "AADT": 719, "STTNID": "000063", "YEAR_GEO": 1999.0, "STPOSTAL": "MT", "LONGITUDE": -105.987299502, "CTFIPS": "75", "VERSION": "01", "LOCATION": "10.5 MILES EAST OF FAS484 MP 76.7", "NHS": 7, "LATITUDE": 45.561690079900004, "STFIPS": "30"}},{"geometry": {"type": "Point", "coordinates": [-111.27237676022878, 45.268143191813806]}, "type": "Feature", "id": 73, "properties": {"FCLASS": "7", "STTNKEY": "30000064", "CONFIDENCE": 3.0, "AADT": 6210, "STTNID": "000064", "YEAR_GEO": 1999.0, "STPOSTAL": "MT", "LONGITUDE": -111.27237691800001, "CTFIPS": "31", "VERSION": "01", "LOCATION": "01.0 MILE WEST OF U.S. 191 MP1", "NHS": 0, "LATITUDE": 45.268143591300003, "STFIPS": "30"}},{"geometry": {"type": "Point", "coordinates": [-112.52466276139512, 45.990397192486398]}, "type": "Feature", "id": 74, "properties": {"FCLASS": "1", "STTNKEY": "30000065", "CONFIDENCE": 3.0, "AADT": 13752, "STTNID": "000065", "YEAR_GEO": 1999.0, "STPOSTAL": "MT", "LONGITUDE": -112.524662951, "CTFIPS": "93", "VERSION": "01", "LOCATION": "BETWEEN MONT. ST. AND HARRISON AVE.INTRS.MP 127", "NHS": 1, "LATITUDE": 45.990397612999999, "STFIPS": "30"}},{"geometry": {"type": "Point", "coordinates": [-113.37103676218339, 47.016512193442168]}, "type": "Feature", "id": 75, "properties": {"FCLASS": "6", "STTNKEY": "30000066", "CONFIDENCE": 3.0, "AADT": 2215, "STTNID": "000066", "YEAR_GEO": 1999.0, "STPOSTAL": "MT", "LONGITUDE": -113.371036766, "CTFIPS": "63", "VERSION": "01", "LOCATION": "01.0 MILE NORTH OF MT.200 MP1", "NHS": 0, "LATITUDE": 47.016512291799998, "STFIPS": "30"}},{"geometry": {"type": "Point", "coordinates": [-113.97897976274953, 46.871638193307263]}, "type": "Feature", "id": 76, "properties": {"COMMENT": "Not on NHPN", "FCLASS": "6", "CONFIDENCE": 3.0, "AADT": 9529, "STTNID": "000067", "YEAR_GEO": 1999.0, "STPOSTAL": "MT", "LONGITUDE": -113.978979835, "CTFIPS": "0", "LATITUDE": 46.871637866699999, "VERSION": "01", "LOCATION": "VAN BURREN ST SOUTH OF POPLAR MISSOULA", "NHS": 0, "STTNKEY": "30000067", "STFIPS": "30"}},{"geometry": {"type": "Point", "coordinates": [-113.99327376276278, 46.857239193293708]}, "type": "Feature", "id": 77, "properties": {"COMMENT": "Not on NHPN", "FCLASS": "7", "CONFIDENCE": 2.0, "AADT": 2775, "STTNID": "000068", "YEAR_GEO": 1999.0, "STPOSTAL": "MT", "LONGITUDE": -113.99327415099999, "CTFIPS": "0", "LATITUDE": 46.857239035699997, "VERSION": "01", "LOCATION": "BECKWITH WEST OF HILDA MISSOULA", "NHS": 0, "STTNKEY": "30000068", "STFIPS": "30"}},{"geometry": {"type": "Point", "coordinates": [-112.79824176164993, 46.235717192714901]}, "type": "Feature", "id": 78, "properties": {"COMMENT": "Poor Location Description", "STTNKEY": "30000069", "CONFIDENCE": 1.0, "AADT": 0, "STTNID": "000069", "YEAR_GEO": 1999.0, "STPOSTAL": "MT", "LONGITUDE": -112.79824155599999, "CTFIPS": "0", "VERSION": "01", "LOCATION": "S273 1 MILE NORTH OF P47 NEAR GALEN", "NHS": 0, "LATITUDE": 46.235716966200002, "STFIPS": "30"}},{"geometry": {"type": "Point", "coordinates": [-112.67971676153957, 46.955089193384993]}, "type": "Feature", "id": 79, "properties": {"FCLASS": "2", "STTNKEY": "30000070", "CONFIDENCE": 3.0, "AADT": 2193, "STTNID": "000070", "YEAR_GEO": 1999.0, "STPOSTAL": "MT", "LONGITUDE": -112.67971709299999, "CTFIPS": "49", "VERSION": "01", "LOCATION": "01.2 MILES EAST OF LINCOLN  MP 73", "NHS": 7, "LATITUDE": 46.955089151300001, "STFIPS": "30"}},{"geometry": {"type": "Point", "coordinates": [-111.26190076021908, 47.51040219390211]}, "type": "Feature", "id": 80, "properties": {"COMMENT": "Not on NHPN", "FCLASS": "6", "CONFIDENCE": 3.0, "AADT": 3365, "STTNID": "000042", "YEAR_GEO": 1999.0, "STPOSTAL": "MT", "LONGITUDE": -111.26190075300001, "CTFIPS": "0", "LATITUDE": 47.5104024834, "VERSION": "01", "LOCATION": "26TH.ST.N BET.4TH.AND 5TH.AVE.GREAT FALLS", "NHS": 0, "STTNKEY": "30000042", "STFIPS": "30"}},{"geometry": {"type": "Point", "coordinates": [-111.22977476018923, 45.27898619182406]}, "type": "Feature", "id": 81, "properties": {"FCLASS": "2", "STTNKEY": "30000043", "CONFIDENCE": 3.0, "AADT": 5148, "STTNID": "000043", "YEAR_GEO": 1999.0, "STPOSTAL": "MT", "LONGITUDE": -111.22977511400001, "CTFIPS": "31", "VERSION": "01", "LOCATION": "01.5 MILES NORTH OF MT.64 M.P.49.8", "NHS": 7, "LATITUDE": 45.278986174899998, "STFIPS": "30"}},{"geometry": {"type": "Point", "coordinates": [-109.89440475894548, 48.560368194880084]}, "type": "Feature", "id": 82, "properties": {"FCLASS": "2", "STTNKEY": "30000046", "CONFIDENCE": 3.0, "AADT": 1466, "STTNID": "000046", "YEAR_GEO": 1999.0, "STPOSTAL": "MT", "LONGITUDE": -109.894405257, "CTFIPS": "41", "VERSION": "01", "LOCATION": "09.0 MILES WEST OF HAVRE M.P. 372.9", "NHS": 7, "LATITUDE": 48.560368675500001, "STFIPS": "30"}},{"geometry": {"type": "Point", "coordinates": [-114.08761976285064, 46.62111119307383]}, "type": "Feature", "id": 83, "properties": {"FCLASS": "2", "STTNKEY": "30000047", "CONFIDENCE": 3.0, "AADT": 8944, "STTNID": "000047", "YEAR_GEO": 1999.0, "STPOSTAL": "MT", "LONGITUDE": -114.08762017799999, "CTFIPS": "81", "VERSION": "01", "LOCATION": "01.0 MILES SOUTH OF FLORENCE M.P.73.7", "NHS": 7, "LATITUDE": 46.6211111151, "STFIPS": "30"}},{"geometry": {"type": "Point", "coordinates": [-106.81551875607806, 46.242390192721132]}, "type": "Feature", "id": 84, "properties": {"FCLASS": "6", "STTNKEY": "30000049", "CONFIDENCE": 3.0, "AADT": 888, "STTNID": "000049", "YEAR_GEO": 1999.0, "STPOSTAL": "MT", "LONGITUDE": -106.815518275, "CTFIPS": "87", "VERSION": "01", "LOCATION": "00.5 MILES SOUTH OF I 94 M.P. 50.7", "NHS": 0, "LATITUDE": 46.242390357300003, "STFIPS": "30"}},{"geometry": {"type": "Point", "coordinates": [-108.47055775761942, 45.813238192321478]}, "type": "Feature", "id": 85, "properties": {"STTNKEY": "30000050", "CONFIDENCE": 2.0, "AADT": 0, "STTNID": "000050", "YEAR_GEO": 1999.0, "STPOSTAL": "MT", "LONGITUDE": -108.470557633, "CTFIPS": "111", "VERSION": "01", "LOCATION": "MAIN ST. BET. MILTON RD. AND  HANSEN LN. BILLINGS", "NHS": 7, "LATITUDE": 45.813237693600001, "STFIPS": "30"}},{"geometry": {"type": "Point", "coordinates": [-108.57265375771453, 45.776966192287773]}, "type": "Feature", "id": 86, "properties": {"FCLASS": "2", "STTNKEY": "30000051", "CONFIDENCE": 2.0, "AADT": 14388, "STTNID": "000051", "YEAR_GEO": 1999.0, "STPOSTAL": "MT", "LONGITUDE": -108.572653289, "CTFIPS": "111", "VERSION": "01", "LOCATION": "BROADWATER BET. 22ND ST.AND GAY PLACE BILLINGS", "NHS": 0, "LATITUDE": 45.776965706399999, "STFIPS": "30"}},{"geometry": {"type": "Point", "coordinates": [-108.43797175758914, 45.801946192311107]}, "type": "Feature", "id": 87, "properties": {"COMMENT": "Not on NHPN", "FCLASS": "6", "CONFIDENCE": 2.0, "AADT": 3812, "STTNID": "000052", "YEAR_GEO": 1999.0, "STPOSTAL": "MT", "LONGITUDE": -108.437971473, "CTFIPS": "0", "LATITUDE": 45.8019464395, "VERSION": "01", "LOCATION": "OLD HARDIN RD. BET. PETERS AND PICOLO BILLINGS", "NHS": 0, "STTNKEY": "30000052", "STFIPS": "30"}},{"geometry": {"type": "Point", "coordinates": [-105.21222175458479, 46.434338192899986]}, "type": "Feature", "id": 88, "properties": {"STTNKEY": "30000053", "CONFIDENCE": 3.0, "AADT": 0, "STTNID": "000053", "YEAR_GEO": 1999.0, "STPOSTAL": "MT", "LONGITUDE": -105.21222205399999, "CTFIPS": "17", "VERSION": "01", "LOCATION": "36.6 MILES EAST OF I 94 NEAR  LOCATE M.P.36.6", "NHS": 0, "LATITUDE": 46.434337942100001, "STFIPS": "30"}},{"geometry": {"type": "Point", "coordinates": [-108.56230175770497, 45.772236192283344]}, "type": "Feature", "id": 89, "properties": {"COMMENT": "Not on NHPN", "FCLASS": "7", "CONFIDENCE": 2.0, "AADT": 8224, "STTNID": "000054", "YEAR_GEO": 1999.0, "STPOSTAL": "MT", "LONGITUDE": -108.56230131300001, "CTFIPS": "0", "LATITUDE": 45.772236580600001, "VERSION": "01", "LOCATION": "19TH ST. BET. WYOMING AND YELLOWSTONE BILLINGS", "NHS": 0, "STTNKEY": "30000054", "STFIPS": "30"}},{"geometry": {"type": "Point", "coordinates": [-110.49913275950871, 48.553142194873317]}, "type": "Feature", "id": 90, "properties": {"STTNKEY": "30000055", "CONFIDENCE": 3.0, "AADT": 0, "STTNID": "000055", "YEAR_GEO": 1999.0, "STPOSTAL": "MT", "LONGITUDE": -110.49913244, "CTFIPS": "41", "VERSION": "01", "LOCATION": "2.5 MILES E OF RYEGATE  MP 133", "NHS": 7, "LATITUDE": 48.553142398299997, "STFIPS": "30"}},{"geometry": {"type": "Point", "coordinates": [-114.16086876291888, 46.278624192754933]}, "type": "Feature", "id": 91, "properties": {"FCLASS": "2", "STTNKEY": "30000056", "CONFIDENCE": 3.0, "AADT": 11244, "STTNID": "000056", "YEAR_GEO": 1999.0, "STPOSTAL": "MT", "LONGITUDE": -114.160868472, "CTFIPS": "81", "VERSION": "01", "LOCATION": "02.5 MILES NORTH OF HAMILTON M.P.51.0", "NHS": 7, "LATITUDE": 46.278623795500003, "STFIPS": "30"}},{"geometry": {"type": "Point", "coordinates": [-107.34591975657213, 45.281964191826773]}, "type": "Feature", "id": 92, "properties": {"FCLASS": "1", "STTNKEY": "30000057", "CONFIDENCE": 3.0, "AADT": 3835, "STTNID": "000057", "YEAR_GEO": 1999.0, "STPOSTAL": "MT", "LONGITUDE": -107.345919528, "CTFIPS": "3", "VERSION": "01", "LOCATION": "JUST S OF LODGEGRASS MP 533.3", "NHS": 1, "LATITUDE": 45.281964526800003, "STFIPS": "30"}},{"geometry": {"type": "Point", "coordinates": [-109.24060675833653, 45.220568191769644]}, "type": "Feature", "id": 93, "properties": {"FCLASS": "6", "STTNKEY": "30000058", "CONFIDENCE": 3.0, "AADT": 2782, "STTNID": "000058", "YEAR_GEO": 1999.0, "STPOSTAL": "MT", "LONGITUDE": -109.24060688500001, "CTFIPS": "9", "VERSION": "01", "LOCATION": "01.8 MILES NORTH OF RED LODGE M.P.72.0", "NHS": 0, "LATITUDE": 45.220567922100003, "STFIPS": "30"}},{"geometry": {"type": "Point", "coordinates": [-108.53899275768322, 45.752039192264419]}, "type": "Feature", "id": 94, "properties": {"FCLASS": "1", "STTNKEY": "30000059", "CONFIDENCE": 3.0, "AADT": 24424, "STTNID": "000059", "YEAR_GEO": 1999.0, "STPOSTAL": "MT", "LONGITUDE": -108.538992822, "CTFIPS": "111", "VERSION": "01", "LOCATION": "BILLINGS URBAN MP 447", "NHS": 1, "LATITUDE": 45.752039616700003, "STFIPS": "30"}},{"geometry": {"type": "Point", "coordinates": [-114.12777876288806, 48.37770419470985]}, "type": "Feature", "id": 95, "properties": {"FCLASS": "2", "STTNKEY": "30000060", "CONFIDENCE": 3.0, "AADT": 6518, "STTNID": "000060", "YEAR_GEO": 1999.0, "STPOSTAL": "MT", "LONGITUDE": -114.12777867600001, "CTFIPS": "29", "VERSION": "01", "LOCATION": "01.5 MILES N. OF COLUMBIA FALLS HEIGHTS MP 139.6", "NHS": 7, "LATITUDE": 48.377704588199997, "STFIPS": "30"}},{"geometry": {"type": "Point", "coordinates": [-113.81339976259528, 46.827928193266416]}, "type": "Feature", "id": 96, "properties": {"STTNKEY": "30000001", "CONFIDENCE": 3.0, "AADT": 0, "STTNID": "000001", "YEAR_GEO": 1999.0, "STPOSTAL": "MT", "LONGITUDE": -113.813399323, "CTFIPS": "63", "VERSION": "01", "LOCATION": "10.0 MILES EAST OF MISSOULA M.P.114.5", "NHS": 1, "LATITUDE": 46.827928462199999, "STFIPS": "30"}},{"geometry": {"type": "Point", "coordinates": [-111.81454676073372, 46.56895419302532]}, "type": "Feature", "id": 97, "properties": {"FCLASS": "2", "STTNKEY": "30000002", "CONFIDENCE": 3.0, "AADT": 5645, "STTNID": "000002", "YEAR_GEO": 1999.0, "STPOSTAL": "MT", "LONGITUDE": -111.814546901, "CTFIPS": "43", "VERSION": "01", "LOCATION": "09.0 MILES EAST OF HELENA M.P.54.5", "NHS": 7, "LATITUDE": 46.5689537238, "STFIPS": "30"}},{"geometry": {"type": "Point", "coordinates": [-111.99560376090244, 46.589549193044604]}, "type": "Feature", "id": 98, "properties": {"FCLASS": "1", "STTNKEY": "30000003", "CONFIDENCE": 3.0, "AADT": 10300, "STTNID": "000003", "YEAR_GEO": 1999.0, "STPOSTAL": "MT", "LONGITUDE": -111.995604215, "CTFIPS": "49", "VERSION": "01", "LOCATION": "00.5 MILES SOUTH OF HELENA M.P.192.0", "NHS": 1, "LATITUDE": 46.589549035399997, "STFIPS": "30"}},{"geometry": {"type": "Point", "coordinates": [-104.60188775401639, 47.104667193524165]}, "type": "Feature", "id": 99, "properties": {"STTNKEY": "30000004", "CONFIDENCE": 3.0, "AADT": 0, "STTNID": "000004", "YEAR_GEO": 1999.0, "STPOSTAL": "MT", "LONGITUDE": -104.601887805, "CTFIPS": "21", "VERSION": "01", "LOCATION": "01.7 MILES EAST OF GEYSER M.P.23.0", "NHS": 1, "LATITUDE": 47.104666753700002, "STFIPS": "30"}},{"geometry": {"type": "Point", "coordinates": [-104.18840875363139, 46.976152193404459]}, "type": "Feature", "id": 100, "properties": {"FCLASS": "6", "STTNKEY": "30000005", "CONFIDENCE": 3.0, "AADT": 713, "STTNID": "000005", "YEAR_GEO": 1999.0, "STPOSTAL": "MT", "LONGITUDE": -104.188408704, "CTFIPS": "109", "VERSION": "01", "LOCATION": "01.0 MILES SOUTH OF WIBAUX M.P.79.1", "NHS": 0, "LATITUDE": 46.9761526753, "STFIPS": "30"}},{"geometry": {"type": "Point", "coordinates": [-111.33423676028633, 45.849474192355274]}, "type": "Feature", "id": 101, "properties": {"COMMENT": "Not in CTFIPS 97 but in 31,  Not on NHPN", "FCLASS": "7", "CONFIDENCE": 1.0, "AADT": 1117, "STTNID": "000006", "YEAR_GEO": 1999.0, "STPOSTAL": "MT", "LONGITUDE": -111.334236957, "CTFIPS": "31", "LATITUDE": 45.849473699999997, "VERSION": "01", "LOCATION": "00.5 MILES SOUTH OF MANHATTAN", "NHS": 1, "STTNKEY": "30000006", "STFIPS": "30"}},{"geometry": {"type": "Point", "coordinates": [-112.0194747609246, 47.037647193461908]}, "type": "Feature", "id": 102, "properties": {"STTNKEY": "30000007", "CONFIDENCE": 3.0, "AADT": 0, "STTNID": "000007", "YEAR_GEO": 1999.0, "STPOSTAL": "MT", "LONGITUDE": -112.019474755, "CTFIPS": "49", "VERSION": "01", "LOCATION": "06.5 MILES NORTH OF WOLF CREEKM.P.230.5", "NHS": 1, "LATITUDE": 47.037646768800002, "STFIPS": "30"}},{"geometry": {"type": "Point", "coordinates": [-114.17787976293471, 47.273211193681163]}, "type": "Feature", "id": 103, "properties": {"STTNKEY": "30000008", "CONFIDENCE": 3.0, "AADT": 0, "STTNID": "000008", "YEAR_GEO": 1999.0, "STPOSTAL": "MT", "LONGITUDE": -114.17788014600001, "CTFIPS": "47", "VERSION": "01", "LOCATION": "00.5 MILES SOUTH OF RAVALLI M.P.26.7", "NHS": 7, "LATITUDE": 47.273210966299999, "STFIPS": "30"}},{"geometry": {"type": "Point", "coordinates": [-111.46120076040461, 47.547984193937054]}, "type": "Feature", "id": 104, "properties": {"FCLASS": "1", "STTNKEY": "30000009", "CONFIDENCE": 3.0, "AADT": 8389, "STTNID": "000009", "YEAR_GEO": 1999.0, "STPOSTAL": "MT", "LONGITUDE": -111.461201188, "CTFIPS": "13", "VERSION": "01", "LOCATION": "07.0 MILES WEST OF GREAT FALLSM.P.287.0", "NHS": 1, "LATITUDE": 47.547984282500003, "STFIPS": "30"}},{"geometry": {"type": "Point", "coordinates": [-105.60417475495001, 48.105218194456029]}, "type": "Feature", "id": 105, "properties": {"FCLASS": "2", "STTNKEY": "30000010", "CONFIDENCE": 3.0, "AADT": 2229, "STTNID": "000010", "YEAR_GEO": 1999.0, "STPOSTAL": "MT", "LONGITUDE": -105.60417519799999, "CTFIPS": "85", "VERSION": "01", "LOCATION": "02.0 MILES EAST OF WOLF POINT M.P.592.6", "NHS": 7, "LATITUDE": 48.105218240100001, "STFIPS": "30"}},{"geometry": {"type": "Point", "coordinates": [-108.63218875776988, 45.717866192232805]}, "type": "Feature", "id": 106, "properties": {"STTNKEY": "30000011", "CONFIDENCE": 3.0, "AADT": 0, "STTNID": "000011", "YEAR_GEO": 1999.0, "STPOSTAL": "MT", "LONGITUDE": -108.63218918600001, "CTFIPS": "111", "VERSION": "01", "LOCATION": "06.0 MILES WEST OF BILLINGS M.P.441.8", "NHS": 1, "LATITUDE": 45.717866514000001, "STFIPS": "30"}},{"geometry": {"type": "Point", "coordinates": [-109.59153175866345, 47.038505193462697]}, "type": "Feature", "id": 107, "properties": {"FCLASS": "2", "STTNKEY": "30000012", "CONFIDENCE": 3.0, "AADT": 2187, "STTNID": "000012", "YEAR_GEO": 1999.0, "STPOSTAL": "MT", "LONGITUDE": -109.591531688, "CTFIPS": "27", "VERSION": "01", "LOCATION": "06.0 MILES WEST OF LEWISTOWN M.P.76.2", "NHS": 7, "LATITUDE": 47.038505488600002, "STFIPS": "30"}},{"geometry": {"type": "Point", "coordinates": [-109.4254797585088, 47.160428193576081]}, "type": "Feature", "id": 108, "properties": {"FCLASS": "6", "STTNKEY": "30000013", "CONFIDENCE": 3.0, "AADT": 1223, "STTNID": "000013", "YEAR_GEO": 1999.0, "STPOSTAL": "MT", "LONGITUDE": -109.425479614, "CTFIPS": "27", "VERSION": "01", "LOCATION": "07.0 MILES NORTH OF LEWISTOWN M.P.9.5", "NHS": 0, "LATITUDE": 47.160428677799999, "STFIPS": "30"}},{"geometry": {"type": "Point", "coordinates": [-112.7680477616218, 45.20615319175613]}, "type": "Feature", "id": 109, "properties": {"FCLASS": "6", "STTNKEY": "30000014", "CONFIDENCE": 3.0, "AADT": 839, "STTNID": "000014", "YEAR_GEO": 1999.0, "STPOSTAL": "MT", "LONGITUDE": -112.76804805, "CTFIPS": "1", "VERSION": "01", "LOCATION": "07.0 MILES SOUTHWEST OF DILLONM.P.6.0", "NHS": 0, "LATITUDE": 45.206153349700003, "STFIPS": "30"}},{"geometry": {"type": "Point", "coordinates": [-113.78853576257211, 46.892389193326608]}, "type": "Feature", "id": 110, "properties": {"FCLASS": "2", "STTNKEY": "30000015", "CONFIDENCE": 3.0, "AADT": 4356, "STTNID": "000015", "YEAR_GEO": 1999.0, "STPOSTAL": "MT", "LONGITUDE": -113.78853531199999, "CTFIPS": "63", "VERSION": "01", "LOCATION": "04.0 MILES NORTHEAST OF BONNERM.P.5.2", "NHS": 7, "LATITUDE": 46.892389279299998, "STFIPS": "30"}},{"geometry": {"type": "Point", "coordinates": [-112.5963697614618, 46.006225192501233]}, "type": "Feature", "id": 111, "properties": {"FCLASS": "1", "STTNKEY": "30000016", "CONFIDENCE": 3.0, "AADT": 15550, "STTNID": "000016", "YEAR_GEO": 1999.0, "STPOSTAL": "MT", "LONGITUDE": -112.596370236, "CTFIPS": "93", "VERSION": "01", "LOCATION": "03.0 MILES WEST OF BUTTE M.P. 123.0", "NHS": 1, "LATITUDE": 46.006225559699999, "STFIPS": "30"}},{"geometry": {"type": "Point", "coordinates": [-112.64315876150545, 44.680160191266168]}, "type": "Feature", "id": 112, "properties": {"FCLASS": "1", "STTNKEY": "30000017", "CONFIDENCE": 3.0, "AADT": 2679, "STTNID": "000017", "YEAR_GEO": 1999.0, "STPOSTAL": "MT", "LONGITUDE": -112.643158363, "CTFIPS": "1", "VERSION": "01", "LOCATION": "06.8 MILES NORTH OF LIMA M.P. 22.3", "NHS": 1, "LATITUDE": 44.680160560200001, "STFIPS": "30"}},{"geometry": {"type": "Point", "coordinates": [-111.19989576016133, 44.681313191267236]}, "type": "Feature", "id": 113, "properties": {"FCLASS": "2", "STTNKEY": "30000018", "CONFIDENCE": 3.0, "AADT": 2621, "STTNID": "000018", "YEAR_GEO": 1999.0, "STPOSTAL": "MT", "LONGITUDE": -111.19989601499999, "CTFIPS": "31", "VERSION": "01", "LOCATION": "00.5 MILES WEST OF WEST YELLOWSTONE M.P.4.2", "NHS": 7, "LATITUDE": 44.681312724400001, "STFIPS": "30"}},{"geometry": {"type": "Point", "coordinates": [-111.12616976009258, 44.786784191365541]}, "type": "Feature", "id": 114, "properties": {"FCLASS": "2", "STTNKEY": "30000019", "CONFIDENCE": 3.0, "AADT": 2441, "STTNID": "000019", "YEAR_GEO": 1999.0, "STPOSTAL": "MT", "LONGITUDE": -111.12616965300001, "CTFIPS": "31", "VERSION": "01", "LOCATION": "07.7 MILES NORTH OF WEST YELLOWSTONE M.P.7.8", "NHS": 0, "LATITUDE": 44.786784298000001, "STFIPS": "30"}},{"geometry": {"type": "Point", "coordinates": [-110.88024275986368, 45.223213191771947]}, "type": "Feature", "id": 115, "properties": {"FCLASS": "2", "STTNKEY": "30000020", "CONFIDENCE": 3.0, "AADT": 1554, "STTNID": "000020", "YEAR_GEO": 1999.0, "STPOSTAL": "MT", "LONGITUDE": -110.880242768, "CTFIPS": "67", "VERSION": "01", "LOCATION": "17.0 MILES NORTH OF GARDINER M.P.18.0", "NHS": 7, "LATITUDE": 45.223213031599997, "STFIPS": "30"}},{"geometry": {"type": "Point", "coordinates": [-112.01948476092457, 46.592625193047297]}, "type": "Feature", "id": 116, "properties": {"COMMENT": "Reference Streets not in database", "FCLASS": "2", "CONFIDENCE": 3.0, "AADT": 21862, "STTNID": "000021", "YEAR_GEO": 1999.0, "STPOSTAL": "MT", "LONGITUDE": -112.01948432499999, "CTFIPS": "49", "LATITUDE": 46.592625399799999, "VERSION": "01", "LOCATION": "MONT. AVE. BET. BILLINGS AND  MISSOULA AVE.HELENA", "NHS": 0, "STTNKEY": "30000021", "STFIPS": "30"}},{"geometry": {"type": "Point", "coordinates": [-106.10194575541345, 46.601122193055289]}, "type": "Feature", "id": 117, "properties": {"FCLASS": "6", "STTNKEY": "30000022", "CONFIDENCE": 3.0, "AADT": 319, "STTNID": "000022", "YEAR_GEO": 1999.0, "STPOSTAL": "MT", "LONGITUDE": -106.101945637, "CTFIPS": "17", "VERSION": "01", "LOCATION": "18.3 MILES NORTH OF MILES CITY M.P.18.3", "NHS": 0, "LATITUDE": 46.601122594800003, "STFIPS": "30"}},{"geometry": {"type": "Point", "coordinates": [-108.76606875789457, 48.565908194885196]}, "type": "Feature", "id": 118, "properties": {"FCLASS": "7", "STTNKEY": "30000023", "CONFIDENCE": 3.0, "AADT": 310, "STTNID": "000023", "YEAR_GEO": 1999.0, "STPOSTAL": "MT", "LONGITUDE": -108.766069148, "CTFIPS": "5", "VERSION": "01", "LOCATION": "02.5 MILES NORTH OF HARLEM", "NHS": 0, "LATITUDE": 48.565908486799998, "STFIPS": "30"}},{"geometry": {"type": "Point", "coordinates": [-114.35628576310091, 48.197129194541731]}, "type": "Feature", "id": 119, "properties": {"FCLASS": "2", "STTNKEY": "30000024", "CONFIDENCE": 3.0, "AADT": 8742, "STTNID": "000024", "YEAR_GEO": 1999.0, "STPOSTAL": "MT", "LONGITUDE": -114.35628567099999, "CTFIPS": "29", "VERSION": "01", "LOCATION": "01.3 MILES WEST OF KALISPELL M.P.118.9", "NHS": 7, "LATITUDE": 48.197129153399999, "STFIPS": "30"}},{"geometry": {"type": "Point", "coordinates": [-104.16820975361247, 46.988617193416076]}, "type": "Feature", "id": 120, "properties": {"FCLASS": "1", "STTNKEY": "30000025", "CONFIDENCE": 3.0, "AADT": 2764, "STTNID": "000025", "YEAR_GEO": 1999.0, "STPOSTAL": "MT", "LONGITUDE": -104.168209922, "CTFIPS": "109", "VERSION": "01", "LOCATION": "00.5 MILES EAST OF WIBAUX M.P.242.8", "NHS": 1, "LATITUDE": 46.988616880599999, "STFIPS": "30"}},{"geometry": {"type": "Point", "coordinates": [-108.75178875788129, 47.392986193792694]}, "type": "Feature", "id": 121, "properties": {"FCLASS": "2", "STTNKEY": "30000027", "CONFIDENCE": 3.0, "AADT": 585, "STTNID": "000027", "YEAR_GEO": 1999.0, "STPOSTAL": "MT", "LONGITUDE": -108.75178870800001, "CTFIPS": "27", "VERSION": "01", "LOCATION": "10.5 MILES NE OF ROY MP 70", "NHS": 7, "LATITUDE": 47.392986007700003, "STFIPS": "30"}},{"geometry": {"type": "Point", "coordinates": [-114.90273276360995, 47.194865193608166]}, "type": "Feature", "id": 122, "properties": {"FCLASS": "1", "STTNKEY": "30000030", "CONFIDENCE": 3.0, "AADT": 6409, "STTNID": "000030", "YEAR_GEO": 1999.0, "STPOSTAL": "MT", "LONGITUDE": -114.902732911, "CTFIPS": "61", "VERSION": "01", "LOCATION": "00.7 MILES WEST OF SUPERIOR   INTERCHANGE M.P.46.8", "NHS": 1, "LATITUDE": 47.194865225500003, "STFIPS": "30"}},{"geometry": {"type": "Point", "coordinates": [-105.99170775531093, 46.318234192791806]}, "type": "Feature", "id": 123, "properties": {"FCLASS": "1", "STTNKEY": "30000031", "CONFIDENCE": 3.0, "AADT": 3980, "STTNID": "000031", "YEAR_GEO": 1999.0, "STPOSTAL": "MT", "LONGITUDE": -105.99170726200001, "CTFIPS": "17", "VERSION": "01", "LOCATION": "08.0 MILES WEST OF MILES CITY M.P.129.2", "NHS": 1, "LATITUDE": 46.318234606499999, "STFIPS": "30"}},{"geometry": {"type": "Point", "coordinates": [-111.26348176022043, 47.510383193902044]}, "type": "Feature", "id": 124, "properties": {"COMMENT": "Not on NHPN", "FCLASS": "6", "CONFIDENCE": 3.0, "AADT": 4054, "STTNID": "000032", "YEAR_GEO": 1999.0, "STPOSTAL": "MT", "LONGITUDE": -111.26348155300001, "CTFIPS": "0", "LATITUDE": 47.510383375099998, "VERSION": "01", "LOCATION": "25TH ST.BET.4TH AND 5TH AVE.N.GREAT FALLS", "NHS": 0, "STTNKEY": "30000032", "STFIPS": "30"}},{"geometry": {"type": "Point", "coordinates": [-111.29031276024557, 47.494192193887102]}, "type": "Feature", "id": 125, "properties": {"FCLASS": "2", "STTNKEY": "30000033", "CONFIDENCE": 3.0, "AADT": 38776, "STTNID": "000033", "YEAR_GEO": 1999.0, "STPOSTAL": "MT", "LONGITUDE": -111.29031304999999, "CTFIPS": "13", "VERSION": "01", "LOCATION": "10TH. AVE.S.BET. 9TH AND 10TH.ST. GREAT FALLS", "NHS": 5, "LATITUDE": 47.494192624699998, "STFIPS": "30"}},{"geometry": {"type": "Point", "coordinates": [-106.7950577560589, 46.298344192773357]}, "type": "Feature", "id": 126, "properties": {"FCLASS": "6", "STTNKEY": "30000034", "CONFIDENCE": 3.0, "AADT": 233, "STTNID": "000034", "YEAR_GEO": 1999.0, "STPOSTAL": "MT", "LONGITUDE": -106.795057989, "CTFIPS": "87", "VERSION": "01", "LOCATION": "05.0 MILES NW OF FORSYTH M.P. 265.0", "NHS": 0, "LATITUDE": 46.298344632099997, "STFIPS": "30"}},{"geometry": {"type": "Point", "coordinates": [-113.83044476261125, 46.839521193277278]}, "type": "Feature", "id": 127, "properties": {"COMMENT": "Not on NHPN", "FCLASS": "7", "CONFIDENCE": 2.0, "AADT": 1074, "STTNID": "000035", "YEAR_GEO": 1999.0, "STPOSTAL": "MT", "LONGITUDE": -113.83044449, "CTFIPS": "0", "LATITUDE": 46.839521268299997, "VERSION": "01", "LOCATION": "03.0 MILES SE OF BONNER", "NHS": 0, "STTNKEY": "30000035", "STFIPS": "30"}},{"geometry": {"type": "Point", "coordinates": [-113.02660476186247, 48.548349194868706]}, "type": "Feature", "id": 128, "properties": {"FCLASS": "2", "STTNKEY": "30000036", "CONFIDENCE": 3.0, "AADT": 1892, "STTNID": "000036", "YEAR_GEO": 1999.0, "STPOSTAL": "MT", "LONGITUDE": -113.02660477800001, "CTFIPS": "35", "VERSION": "01", "LOCATION": "00.5 MILES WEST OF BROWNING M.P.221.2", "NHS": 7, "LATITUDE": 48.5483493674, "STFIPS": "30"}},{"geometry": {"type": "Point", "coordinates": [-114.00149276277057, 46.870660193306321]}, "type": "Feature", "id": 129, "properties": {"FCLASS": "2", "STTNKEY": "30000037", "CONFIDENCE": 3.0, "AADT": 21219, "STTNID": "000037", "YEAR_GEO": 1999.0, "STPOSTAL": "MT", "LONGITUDE": -114.001492966, "CTFIPS": "63", "VERSION": "01", "LOCATION": "SOUTH OF ORANGE ST.BRIDGE MISSOULA", "NHS": 0, "LATITUDE": 46.870660605200001, "STFIPS": "30"}},{"geometry": {"type": "Point", "coordinates": [-106.92761475618249, 47.307827193713365]}, "type": "Feature", "id": 130, "properties": {"FCLASS": "2", "STTNKEY": "30000038", "CONFIDENCE": 3.0, "AADT": 432, "STTNID": "000038", "YEAR_GEO": 1999.0, "STPOSTAL": "MT", "LONGITUDE": -106.927615042, "CTFIPS": "33", "VERSION": "01", "LOCATION": "01.0 MILES WEST OF JORDAN M.P.211.0", "NHS": 7, "LATITUDE": 47.307827521, "STFIPS": "30"}},{"geometry": {"type": "Point", "coordinates": [-112.50645476137811, 48.209841194553519]}, "type": "Feature", "id": 131, "properties": {"FCLASS": "6", "STTNKEY": "30000039", "CONFIDENCE": 3.0, "AADT": 352, "STTNID": "000039", "YEAR_GEO": 1999.0, "STPOSTAL": "MT", "LONGITUDE": -112.50645516100001, "CTFIPS": "73", "VERSION": "01", "LOCATION": "00.5 MILES NORTH OF DUPUYER M.P.75.9", "NHS": 0, "LATITUDE": 48.209841401200002, "STFIPS": "30"}},{"geometry": {"type": "Point", "coordinates": [-110.4238247594385, 45.713102192228234]}, "type": "Feature", "id": 132, "properties": {"STTNKEY": "30000041", "CONFIDENCE": 3.0, "AADT": 0, "STTNID": "000041", "YEAR_GEO": 1999.0, "STPOSTAL": "MT", "LONGITUDE": -110.42382496, "CTFIPS": "67", "VERSION": "01", "LOCATION": "07.5 MILES EAST OF LIVINGSTON M.P.342.0", "NHS": 1, "LATITUDE": 45.7131021322, "STFIPS": "30"}},{"geometry": {"type": "Point", "coordinates": [-116.55849876515185, 43.580442190242138]}, "type": "Feature", "id": 133, "properties": {"FCLASS": "14", "STTNKEY": "16000204", "CONFIDENCE": 3.0, "AADT": 23917, "STTNID": "000204", "YEAR_GEO": 2001.0, "STPOSTAL": "ID", "LONGITUDE": -116.558498743, "CTFIPS": "27", "VERSION": "01", "LOCATION": "I84B 11TH AVE BTN 1ST S. & 1ST N., NAMPA", "NHS": 0, "LATITUDE": 43.5804425173, "STFIPS": "16"}},{"geometry": {"type": "Point", "coordinates": [-116.68136576526626, 43.666678190322273]}, "type": "Feature", "id": 134, "properties": {"FCLASS": "14", "STTNKEY": "16000205", "CONFIDENCE": 3.0, "AADT": 16826, "STTNID": "000205", "YEAR_GEO": 2001.0, "STPOSTAL": "ID", "LONGITUDE": -116.68136551800001, "CTFIPS": "27", "VERSION": "01", "LOCATION": "10TH AVE. N.E. OF RRXING, CALDWELL", "NHS": 0, "LATITUDE": 43.666677782400001, "STFIPS": "16"}},{"geometry": {"type": "Point", "coordinates": [-116.22816776484433, 43.619297190278303]}, "type": "Feature", "id": 135, "properties": {"COMMENT": "Unable to find exact location of Boise River Bridge here", "FCLASS": "14", "CONFIDENCE": 2.0, "AADT": 11642, "STTNID": "000209", "YEAR_GEO": 2001.0, "STPOSTAL": "ID", "LONGITUDE": -116.228167938, "CTFIPS": "1", "LATITUDE": 43.6192967219, "VERSION": "01", "LOCATION": "FAIRVIEW AVE., BOISE RIVER BRIDGE (BOISE)", "NHS": 0, "STTNKEY": "16000209", "STFIPS": "16"}},{"geometry": {"type": "Point", "coordinates": [-116.22941476484539, 43.620184190279133]}, "type": "Feature", "id": 136, "properties": {"COMMENT": "Unable to find exact location of Boise River Bridge", "FCLASS": "14", "CONFIDENCE": 2.0, "AADT": 15719, "STTNID": "000210", "YEAR_GEO": 2001.0, "STPOSTAL": "ID", "LONGITUDE": -116.229414972, "CTFIPS": "1", "LATITUDE": 43.6201844247, "VERSION": "01", "LOCATION": "MAIN STREET, BOISE RIVER BRIDGE (BOISE)", "NHS": 0, "STTNKEY": "16000210", "STFIPS": "16"}},{"geometry": {"type": "Point", "coordinates": [-116.1815077648007, 43.606991190266854]}, "type": "Feature", "id": 137, "properties": {"FCLASS": "16", "STTNKEY": "16000211", "CONFIDENCE": 2.0, "AADT": 14054, "STTNID": "000211", "YEAR_GEO": 2001.0, "STPOSTAL": "ID", "LONGITUDE": -116.18150729200001, "CTFIPS": "0", "VERSION": "01", "LOCATION": "WARM SPRINGS BTN WALNUT & LOCUST, BOISE", "NHS": 0, "LATITUDE": 43.606990889400002, "STFIPS": "16"}},{"geometry": {"type": "Point", "coordinates": [-116.2064597648241, 43.60899719026861]}, "type": "Feature", "id": 138, "properties": {"FCLASS": "14", "STTNKEY": "16000212", "CONFIDENCE": 2.0, "AADT": 19791, "STTNID": "000212", "YEAR_GEO": 2001.0, "STPOSTAL": "ID", "LONGITUDE": -116.206460101, "CTFIPS": "1", "VERSION": "01", "LOCATION": "CAPITOL BLVD., BOISE RIVER BRIDGE (BOISE)", "NHS": 9, "LATITUDE": 43.6089973817, "STFIPS": "16"}},{"geometry": {"type": "Point", "coordinates": [-116.19200476481069, 43.603917190263928]}, "type": "Feature", "id": 139, "properties": {"FCLASS": "14", "STTNKEY": "16000213", "CONFIDENCE": 3.0, "AADT": 25897, "STTNID": "000213", "YEAR_GEO": 2001.0, "STPOSTAL": "ID", "LONGITUDE": -116.192004587, "CTFIPS": "1", "VERSION": "01", "LOCATION": "BROADWAY AVE., BOISE RIVER BRIDGE, BOISE", "NHS": 7, "LATITUDE": 43.603917058900002, "STFIPS": "16"}},{"geometry": {"type": "Point", "coordinates": [-116.20804276482545, 43.609521190269106]}, "type": "Feature", "id": 140, "properties": {"FCLASS": "14", "STTNKEY": "16000216", "CONFIDENCE": 2.0, "AADT": 20061, "STTNID": "000216", "YEAR_GEO": 2001.0, "STPOSTAL": "ID", "LONGITUDE": -116.208042785, "CTFIPS": "1", "VERSION": "01", "LOCATION": "9TH STREET, BOISE RIVER BRIDGE (BOISE)", "NHS": 9, "LATITUDE": 43.609520917499999, "STFIPS": "16"}},{"geometry": {"type": "Point", "coordinates": [-116.27844876489098, 43.658285190314473]}, "type": "Feature", "id": 141, "properties": {"COMMENT": "Some maps show that 44 and Glenwood St. are the same", "FCLASS": "14", "CONFIDENCE": 2.0, "AADT": 37886, "STTNID": "000217", "YEAR_GEO": 2001.0, "STPOSTAL": "ID", "LONGITUDE": -116.27844919, "CTFIPS": "1", "LATITUDE": 43.6582848165, "VERSION": "01", "LOCATION": "GLENWOOD ST., BOISE RIVER BRIDGE, BOISE", "NHS": 0, "STTNKEY": "16000217", "STFIPS": "16"}},{"geometry": {"type": "Point", "coordinates": [-116.23927876485459, 43.636592190294323]}, "type": "Feature", "id": 142, "properties": {"FCLASS": "16", "STTNKEY": "16000218", "CONFIDENCE": 2.0, "AADT": 26694, "STTNID": "000218", "YEAR_GEO": 2001.0, "STPOSTAL": "ID", "LONGITUDE": -116.239278931, "CTFIPS": "0", "VERSION": "01", "LOCATION": "VETERAN'S MEM. PKWY. BOISE R. BRDG,BOISE", "NHS": 0, "LATITUDE": 43.636592247700001, "STFIPS": "16"}},{"geometry": {"type": "Point", "coordinates": [-116.54842876514249, 43.561236190224236]}, "type": "Feature", "id": 143, "properties": {"COMMENT": "Not on NHPN", "STTNKEY": "16000220", "CONFIDENCE": 3.0, "AADT": 0, "STTNID": "000220", "YEAR_GEO": 2001.0, "STPOSTAL": "ID", "LONGITUDE": -116.548428554, "CTFIPS": "0", "VERSION": "01", "LOCATION": "AMITY RD. WEST OF RRXING, NAMPA", "NHS": 0, "LATITUDE": 43.561236200000003, "STFIPS": "16"}},{"geometry": {"type": "Point", "coordinates": [-116.57090376516339, 43.592919190253724]}, "type": "Feature", "id": 144, "properties": {"COMMENT": "Poor Location Description", "FCLASS": "14", "CONFIDENCE": 2.0, "AADT": 24074, "STTNID": "000221", "YEAR_GEO": 2001.0, "STPOSTAL": "ID", "LONGITUDE": -116.570903612, "CTFIPS": "27", "LATITUDE": 43.5929189816, "VERSION": "01", "LOCATION": "NAMPA BLVD. NORTH OF RRXING, NAMPA", "NHS": 7, "STTNKEY": "16000221", "STFIPS": "16"}},{"geometry": {"type": "Point", "coordinates": [-112.16191276105724, 42.489636189226076]}, "type": "Feature", "id": 145, "properties": {"FCLASS": "6", "STTNKEY": "16000074", "CONFIDENCE": 3.0, "AADT": 1924, "STTNID": "000074", "YEAR_GEO": 2001.0, "STPOSTAL": "ID", "LONGITUDE": -112.16191319000001, "CTFIPS": "5", "VERSION": "01", "LOCATION": "1.0 MI S.E. OF JCT I-15 AT VIRGINIA", "NHS": 0, "LATITUDE": 42.489635802999999, "STFIPS": "16"}},{"geometry": {"type": "Point", "coordinates": [-111.18596476014841, 43.954220190590149]}, "type": "Feature", "id": 146, "properties": {"FCLASS": "7", "STTNKEY": "16000075", "CONFIDENCE": 3.0, "AADT": 523, "STTNID": "000075", "YEAR_GEO": 2001.0, "STPOSTAL": "ID", "LONGITUDE": -111.18596474100001, "CTFIPS": "43", "VERSION": "01", "LOCATION": "1.3 MILES NORTH OF TETON-FREMONT COUNTY LINE", "NHS": 0, "LATITUDE": 43.954219838199997, "STFIPS": "16"}},{"geometry": {"type": "Point", "coordinates": [-111.99502976090184, 43.552560190216127]}, "type": "Feature", "id": 147, "properties": {"FCLASS": "2", "STTNKEY": "16000076", "CONFIDENCE": 3.0, "AADT": 16327, "STTNID": "000076", "YEAR_GEO": 2001.0, "STPOSTAL": "ID", "LONGITUDE": -111.995029942, "CTFIPS": "19", "VERSION": "01", "LOCATION": "3.0 MI. N.E. OF IDAHO FALLS", "NHS": 7, "LATITUDE": 43.552560554000003, "STFIPS": "16"}},{"geometry": {"type": "Point", "coordinates": [-112.59819376146356, 44.094783190721046]}, "type": "Feature", "id": 148, "properties": {"FCLASS": "7", "STTNKEY": "16000077", "CONFIDENCE": 3.0, "AADT": 180, "STTNID": "000077", "YEAR_GEO": 2001.0, "STPOSTAL": "ID", "LONGITUDE": -112.59819344899999, "CTFIPS": "33", "VERSION": "01", "LOCATION": "3.6 MI. N.E. JEFFERSON CLARK CO LINE", "NHS": 0, "LATITUDE": 44.094783491299999, "STFIPS": "16"}},{"geometry": {"type": "Point", "coordinates": [-112.8325897616819, 42.789735189505564]}, "type": "Feature", "id": 149, "properties": {"COMMENT": "Poor Location Description", "FCLASS": "6", "CONFIDENCE": 2.0, "AADT": 2729, "STTNID": "000078", "YEAR_GEO": 2001.0, "STPOSTAL": "ID", "LONGITUDE": -112.832589955, "CTFIPS": "77", "LATITUDE": 42.789734818399999, "VERSION": "01", "LOCATION": "0.13 MI. S.E. MARINA RD.,AMERICAN FALLS (I86B)", "NHS": 1, "STTNKEY": "16000078", "STFIPS": "16"}},{"geometry": {"type": "Point", "coordinates": [-116.13385576475639, 43.564858190227596]}, "type": "Feature", "id": 150, "properties": {"FCLASS": "16", "STTNKEY": "16000080", "CONFIDENCE": 3.0, "AADT": 4253, "STTNID": "000080", "YEAR_GEO": 2001.0, "STPOSTAL": "ID", "LONGITUDE": -116.13385619100001, "CTFIPS": "1", "VERSION": "01", "LOCATION": "ECKERT RD., BOISE RIVER BRIDGE, BOISE", "NHS": 0, "LATITUDE": 43.5648577985, "STFIPS": "16"}},{"geometry": {"type": "Point", "coordinates": [-115.24555676392924, 44.178814190799358]}, "type": "Feature", "id": 151, "properties": {"FCLASS": "6", "STTNKEY": "16000081", "CONFIDENCE": 3.0, "AADT": 495, "STTNID": "000081", "YEAR_GEO": 2001.0, "STPOSTAL": "ID", "LONGITUDE": -115.245556967, "CTFIPS": "15", "VERSION": "01", "LOCATION": "1.2 MILES N.E. OF GRANDJEAN JUNCTION", "NHS": 0, "LATITUDE": 44.178813918199999, "STFIPS": "16"}},{"geometry": {"type": "Point", "coordinates": [-114.34582676309128, 44.254430190869698]}, "type": "Feature", "id": 152, "properties": {"FCLASS": "6", "STTNKEY": "16000082", "CONFIDENCE": 3.0, "AADT": 740, "STTNID": "000082", "YEAR_GEO": 2001.0, "STPOSTAL": "ID", "LONGITUDE": -114.345826456, "CTFIPS": "37", "VERSION": "01", "LOCATION": "4.2 MILES EAST OF CLAYTON", "NHS": 0, "LATITUDE": 44.254430253099997, "STFIPS": "16"}},{"geometry": {"type": "Point", "coordinates": [-115.86921276450994, 44.057715190686622]}, "type": "Feature", "id": 153, "properties": {"COMMENT": "Not on NHPN", "FCLASS": "6", "CONFIDENCE": 1.0, "AADT": 754, "STTNID": "000083", "YEAR_GEO": 2001.0, "STPOSTAL": "ID", "LONGITUDE": -115.86921306799999, "CTFIPS": "0", "LATITUDE": 44.057715385999998, "VERSION": "01", "LOCATION": ".6 MI. E. OF RANGER STA., GARDEN VALLEY", "NHS": 0, "STTNKEY": "16000083", "STFIPS": "16"}},{"geometry": {"type": "Point", "coordinates": [-115.59739176425683, 46.144778192630383]}, "type": "Feature", "id": 154, "properties": {"FCLASS": "2", "STTNKEY": "16000085", "CONFIDENCE": 2.0, "AADT": 658, "STTNID": "000085", "YEAR_GEO": 2001.0, "STPOSTAL": "ID", "LONGITUDE": -115.597392222, "CTFIPS": "49", "VERSION": "01", "LOCATION": "1 MI. N.E. OF SELWAY RIVER RD., LOWELL", "NHS": 7, "LATITUDE": 46.144778406299999, "STFIPS": "16"}},{"geometry": {"type": "Point", "coordinates": [-116.09903476472391, 43.47109019014033]}, "type": "Feature", "id": 155, "properties": {"FCLASS": "1", "STTNKEY": "16000087", "CONFIDENCE": 2.0, "AADT": 10541, "STTNID": "000087", "YEAR_GEO": 2001.0, "STPOSTAL": "ID", "LONGITUDE": -116.09903436499999, "CTFIPS": "1", "VERSION": "01", "LOCATION": "BLACK'S CREEK REST AREA", "NHS": 1, "LATITUDE": 43.4710903868, "STFIPS": "16"}},{"geometry": {"type": "Point", "coordinates": [-116.44961476505046, 44.628917191218534]}, "type": "Feature", "id": 156, "properties": {"COMMENT": "Located at Mesa - Unable to find Mesa RD.", "FCLASS": "2", "CONFIDENCE": 1.0, "AADT": 2148, "STTNID": "000088", "YEAR_GEO": 2001.0, "STPOSTAL": "ID", "LONGITUDE": -116.449614963, "CTFIPS": "3", "LATITUDE": 44.628916748499996, "VERSION": "01", "LOCATION": "1.8 MI. N OF MESA RD", "NHS": 7, "STTNKEY": "16000088", "STFIPS": "16"}},{"geometry": {"type": "Point", "coordinates": [-116.91537176548422, 47.71262619409049]}, "type": "Feature", "id": 157, "properties": {"FCLASS": "11", "STTNKEY": "16000001", "CONFIDENCE": 3.0, "AADT": 25219, "STTNID": "000001", "YEAR_GEO": 2001.0, "STPOSTAL": "ID", "LONGITUDE": -116.91537200400001, "CTFIPS": "55", "VERSION": "01", "LOCATION": "1.0 MILES WEST OF SH-41, POST FALLS", "NHS": 1, "LATITUDE": 47.712626037200003, "STFIPS": "16"}},{"geometry": {"type": "Point", "coordinates": [-116.18941976480824, 43.563338190226204]}, "type": "Feature", "id": 158, "properties": {"FCLASS": "11", "STTNKEY": "16000002", "CONFIDENCE": 3.0, "AADT": 20967, "STTNID": "000002", "YEAR_GEO": 2001.0, "STPOSTAL": "ID", "LONGITUDE": -116.189419445, "CTFIPS": "1", "VERSION": "01", "LOCATION": "4.3 MI. S.E. OF BROADWAY I.C., BOISE", "NHS": 1, "LATITUDE": 43.563338405800003, "STFIPS": "16"}},{"geometry": {"type": "Point", "coordinates": [-114.41799376315839, 42.548436189280892]}, "type": "Feature", "id": 159, "properties": {"FCLASS": "6", "STTNKEY": "16000003", "CONFIDENCE": 3.0, "AADT": 8933, "STTNID": "000003", "YEAR_GEO": 2001.0, "STPOSTAL": "ID", "LONGITUDE": -114.417993939, "CTFIPS": "83", "VERSION": "01", "LOCATION": "2.8 MILES W. OF JCT SH-50, TWIN FALLS", "NHS": 0, "LATITUDE": 42.548436112600001, "STFIPS": "16"}},{"geometry": {"type": "Point", "coordinates": [-112.34058176122358, 42.798593189513895]}, "type": "Feature", "id": 160, "properties": {"COMMENT": "Poor Location Description", "FCLASS": "1", "CONFIDENCE": 2.0, "AADT": 15845, "STTNID": "000004", "YEAR_GEO": 2001.0, "STPOSTAL": "ID", "LONGITUDE": -112.340581611, "CTFIPS": "5", "LATITUDE": 42.798593349100003, "VERSION": "01", "LOCATION": "5.0 MILES S.E. OF S. POCATELLO I.C.", "NHS": 1, "STTNKEY": "16000004", "STFIPS": "16"}},{"geometry": {"type": "Point", "coordinates": [-112.45551476133073, 42.97924918968215]}, "type": "Feature", "id": 161, "properties": {"FCLASS": "6", "STTNKEY": "16000005", "CONFIDENCE": 3.0, "AADT": 4440, "STTNID": "000005", "YEAR_GEO": 2001.0, "STPOSTAL": "ID", "LONGITUDE": -112.455514658, "CTFIPS": "5", "VERSION": "01", "LOCATION": "7.0 MILES NORTH OF POCATELLO", "NHS": 0, "LATITUDE": 42.979249218500001, "STFIPS": "16"}},{"geometry": {"type": "Point", "coordinates": [-116.85875476543151, 46.449000192913672]}, "type": "Feature", "id": 162, "properties": {"FCLASS": "2", "STTNKEY": "16000006", "CONFIDENCE": 3.0, "AADT": 10519, "STTNID": "000006", "YEAR_GEO": 2001.0, "STPOSTAL": "ID", "LONGITUDE": -116.858754637, "CTFIPS": "69", "VERSION": "01", "LOCATION": "7.0 MILES E. OF JCT US-12, LEWISTON", "NHS": 7, "LATITUDE": 46.448999754399999, "STFIPS": "16"}},{"geometry": {"type": "Point", "coordinates": [-114.65564076337978, 42.754101189472522]}, "type": "Feature", "id": 163, "properties": {"FCLASS": "1", "STTNKEY": "16000007", "CONFIDENCE": 3.0, "AADT": 18412, "STTNID": "000007", "YEAR_GEO": 2001.0, "STPOSTAL": "ID", "LONGITUDE": -114.65564098999999, "CTFIPS": "47", "VERSION": "01", "LOCATION": "2.6 MILES E. OF JCT SH-46, JEROME", "NHS": 1, "LATITUDE": 42.754101352200003, "STFIPS": "16"}},{"geometry": {"type": "Point", "coordinates": [-116.41280176501618, 47.571188193958733]}, "type": "Feature", "id": 164, "properties": {"FCLASS": "1", "STTNKEY": "16000008", "CONFIDENCE": 3.0, "AADT": 11202, "STTNID": "000008", "YEAR_GEO": 2001.0, "STPOSTAL": "ID", "LONGITUDE": -116.41280158799999, "CTFIPS": "55", "VERSION": "01", "LOCATION": "1.6 MILES E. OF JCT SH-3, DUDLEY", "NHS": 1, "LATITUDE": 47.571188331000002, "STFIPS": "16"}},{"geometry": {"type": "Point", "coordinates": [-116.80237576537911, 43.669198190324778]}, "type": "Feature", "id": 165, "properties": {"FCLASS": "6", "STTNKEY": "16000009", "CONFIDENCE": 3.0, "AADT": 8118, "STTNID": "000009", "YEAR_GEO": 2001.0, "STPOSTAL": "ID", "LONGITUDE": -116.80237590500001, "CTFIPS": "27", "VERSION": "01", "LOCATION": "4.5 MI. WEST OF CALDWELL", "NHS": 0, "LATITUDE": 43.669198390299997, "STFIPS": "16"}},{"geometry": {"type": "Point", "coordinates": [-116.30720576491785, 43.727368190378911]}, "type": "Feature", "id": 166, "properties": {"FCLASS": "14", "STTNKEY": "16000010", "CONFIDENCE": 3.0, "AADT": 7750, "STTNID": "000010", "YEAR_GEO": 2001.0, "STPOSTAL": "ID", "LONGITUDE": -116.307205866, "CTFIPS": "1", "VERSION": "01", "LOCATION": "3.5 MILES N. OF JCT SH-44, DRY CREEK", "NHS": 7, "LATITUDE": 43.727367719100002, "STFIPS": "16"}},{"geometry": {"type": "Point", "coordinates": [-111.40013876034777, 42.210609188966373]}, "type": "Feature", "id": 167, "properties": {"COMMENT": "Unable to locate exact location of Paris", "FCLASS": "2", "CONFIDENCE": 2.0, "AADT": 1621, "STTNID": "000011", "YEAR_GEO": 2001.0, "STPOSTAL": "ID", "LONGITUDE": -111.40013868699999, "CTFIPS": "7", "LATITUDE": 42.2106087218, "VERSION": "01", "LOCATION": "2.8 MILES SOUTH OF PARIS", "NHS": 7, "STTNKEY": "16000011", "STFIPS": "16"}},{"geometry": {"type": "Point", "coordinates": [-111.69219376061983, 43.610124190269744]}, "type": "Feature", "id": 168, "properties": {"FCLASS": "2", "STTNKEY": "16000012", "CONFIDENCE": 3.0, "AADT": 3735, "STTNID": "000012", "YEAR_GEO": 2001.0, "STPOSTAL": "ID", "LONGITUDE": -111.692193489, "CTFIPS": "19", "VERSION": "01", "LOCATION": "4.4 MILES EAST OF RIRIE", "NHS": 7, "LATITUDE": 43.610124632199998, "STFIPS": "16"}},{"geometry": {"type": "Point", "coordinates": [-113.89196676266852, 45.131875191686959]}, "type": "Feature", "id": 169, "properties": {"FCLASS": "2", "STTNKEY": "16000013", "CONFIDENCE": 3.0, "AADT": 2833, "STTNID": "000013", "YEAR_GEO": 2001.0, "STPOSTAL": "ID", "LONGITUDE": -113.891966569, "CTFIPS": "59", "VERSION": "01", "LOCATION": "2.9 MILES SOUTH OF SALMON", "NHS": 7, "LATITUDE": 45.131874764000003, "STFIPS": "16"}},{"geometry": {"type": "Point", "coordinates": [-114.39484976313679, 43.012097189712676]}, "type": "Feature", "id": 170, "properties": {"FCLASS": "6", "STTNKEY": "16000014", "CONFIDENCE": 3.0, "AADT": 3881, "STTNID": "000014", "YEAR_GEO": 2001.0, "STPOSTAL": "ID", "LONGITUDE": -114.394849728, "CTFIPS": "63", "VERSION": "01", "LOCATION": "5.2 MILES NORTH OF SHOSHONE", "NHS": 0, "LATITUDE": 43.012097660800002, "STFIPS": "16"}},{"geometry": {"type": "Point", "coordinates": [-116.93054176549845, 46.957537193387225]}, "type": "Feature", "id": 171, "properties": {"FCLASS": "2", "STTNKEY": "16000015", "CONFIDENCE": 3.0, "AADT": 2731, "STTNID": "000015", "YEAR_GEO": 2001.0, "STPOSTAL": "ID", "LONGITUDE": -116.93054173, "CTFIPS": "57", "VERSION": "01", "LOCATION": "2.0 NORTH OF JCT SH-6, POTLATCH", "NHS": 7, "LATITUDE": 46.957537093299997, "STFIPS": "16"}},{"geometry": {"type": "Point", "coordinates": [-116.3083167649188, 48.717124195025917]}, "type": "Feature", "id": 172, "properties": {"FCLASS": "2", "STTNKEY": "16000016", "CONFIDENCE": 3.0, "AADT": 7961, "STTNID": "000016", "YEAR_GEO": 2001.0, "STPOSTAL": "ID", "LONGITUDE": -116.30831723599999, "CTFIPS": "21", "VERSION": "01", "LOCATION": "1.0 MI. S. OF JCT US-2, BONNERS FERRY", "NHS": 7, "LATITUDE": 48.717124038900003, "STFIPS": "16"}},{"geometry": {"type": "Point", "coordinates": [-113.36132776217437, 43.597929190258355]}, "type": "Feature", "id": 173, "properties": {"FCLASS": "2", "STTNKEY": "16000017", "CONFIDENCE": 3.0, "AADT": 2076, "STTNID": "000017", "YEAR_GEO": 2001.0, "STPOSTAL": "ID", "LONGITUDE": -113.36132736, "CTFIPS": "23", "VERSION": "01", "LOCATION": "4.6 MILES EAST OF JCT US-93, ARCO", "NHS": 7, "LATITUDE": 43.597929256800001, "STFIPS": "16"}},{"geometry": {"type": "Point", "coordinates": [-113.2373887620588, 42.59778818932682]}, "type": "Feature", "id": 174, "properties": {"FCLASS": "1", "STTNKEY": "16000018", "CONFIDENCE": 3.0, "AADT": 6418, "STTNID": "000018", "YEAR_GEO": 2001.0, "STPOSTAL": "ID", "LONGITUDE": -113.237388279, "CTFIPS": "31", "VERSION": "01", "LOCATION": "0.1 MILE EAST OF RAFT RIVER BRIDGE", "NHS": 1, "LATITUDE": 42.597788113900002, "STFIPS": "16"}},{"geometry": {"type": "Point", "coordinates": [-116.04876476467712, 46.252649192730814]}, "type": "Feature", "id": 175, "properties": {"FCLASS": "2", "STTNKEY": "16000019", "CONFIDENCE": 3.0, "AADT": 2125, "STTNID": "000019", "YEAR_GEO": 2001.0, "STPOSTAL": "ID", "LONGITUDE": -116.04876437199999, "CTFIPS": "61", "VERSION": "01", "LOCATION": "2.2 MILES N.W. OF JCT SH-64, KAMIAH", "NHS": 7, "LATITUDE": 46.252649519999999, "STFIPS": "16"}},{"geometry": {"type": "Point", "coordinates": [-116.74255376532324, 47.867121194234414]}, "type": "Feature", "id": 176, "properties": {"FCLASS": "2", "STTNKEY": "16000021", "CONFIDENCE": 3.0, "AADT": 14645, "STTNID": "000021", "YEAR_GEO": 2001.0, "STPOSTAL": "ID", "LONGITUDE": -116.74255420599999, "CTFIPS": "55", "VERSION": "01", "LOCATION": "NORTH LIMITS OF CHILCO", "NHS": 7, "LATITUDE": 47.867121060899997, "STFIPS": "16"}},{"geometry": {"type": "Point", "coordinates": [-112.20349376109607, 42.017217188786162]}, "type": "Feature", "id": 177, "properties": {"FCLASS": "1", "STTNKEY": "16000022", "CONFIDENCE": 3.0, "AADT": 9070, "STTNID": "000022", "YEAR_GEO": 2001.0, "STPOSTAL": "ID", "LONGITUDE": -112.203493377, "CTFIPS": "71", "VERSION": "01", "LOCATION": "11.9 MILES SOUTH OF MALAD", "NHS": 1, "LATITUDE": 42.0172174462, "STFIPS": "16"}},{"geometry": {"type": "Point", "coordinates": [-116.42929076503151, 44.793197191371519]}, "type": "Feature", "id": 178, "properties": {"FCLASS": "2", "STTNKEY": "16000023", "CONFIDENCE": 3.0, "AADT": 1858, "STTNID": "000023", "YEAR_GEO": 2001.0, "STPOSTAL": "ID", "LONGITUDE": -116.42929051900001, "CTFIPS": "3", "VERSION": "01", "LOCATION": "4.5 MILES NORTH OF COUNCIL", "NHS": 7, "LATITUDE": 44.793197247199998, "STFIPS": "16"}},{"geometry": {"type": "Point", "coordinates": [-112.440782761317, 42.919539189626448]}, "type": "Feature", "id": 179, "properties": {"FCLASS": "11", "STTNKEY": "16000024", "CONFIDENCE": 3.0, "AADT": 21140, "STTNID": "000024", "YEAR_GEO": 2001.0, "STPOSTAL": "ID", "LONGITUDE": -112.440782281, "CTFIPS": "5", "VERSION": "01", "LOCATION": "0.6 MILES NORTH OF JCT I-86, CHUBBUCK", "NHS": 1, "LATITUDE": 42.919539371900001, "STFIPS": "16"}},{"geometry": {"type": "Point", "coordinates": [-116.73352576531488, 43.78746619043477]}, "type": "Feature", "id": 180, "properties": {"FCLASS": "1", "STTNKEY": "16000025", "CONFIDENCE": 3.0, "AADT": 18221, "STTNID": "000025", "YEAR_GEO": 2001.0, "STPOSTAL": "ID", "LONGITUDE": -116.733525339, "CTFIPS": "27", "VERSION": "01", "LOCATION": "7.8 MILES NORTH OF CALDWELL, SAND HOLLOW", "NHS": 1, "LATITUDE": 43.787465743799999, "STFIPS": "16"}},{"geometry": {"type": "Point", "coordinates": [-116.43721476503902, 48.323542194659467]}, "type": "Feature", "id": 181, "properties": {"FCLASS": "6", "STTNKEY": "16000026", "CONFIDENCE": 3.0, "AADT": 4226, "STTNID": "000026", "YEAR_GEO": 2001.0, "STPOSTAL": "ID", "LONGITUDE": -116.437214766, "CTFIPS": "17", "VERSION": "01", "LOCATION": "6.4 MILES EAST OF JCT US-95, KOOTENAI", "NHS": 0, "LATITUDE": 48.323542163100001, "STFIPS": "16"}},{"geometry": {"type": "Point", "coordinates": [-116.65761476524426, 47.394859193794446]}, "type": "Feature", "id": 182, "properties": {"FCLASS": "6", "STTNKEY": "16000027", "CONFIDENCE": 3.0, "AADT": 1647, "STTNID": "000027", "YEAR_GEO": 2001.0, "STPOSTAL": "ID", "LONGITUDE": -116.657615015, "CTFIPS": "55", "VERSION": "01", "LOCATION": "0.3 MI. S. OF JCT SH-97, ST. MARIES", "NHS": 0, "LATITUDE": 47.394859064899997, "STFIPS": "16"}},{"geometry": {"type": "Point", "coordinates": [-114.41330376315409, 43.778323190426363]}, "type": "Feature", "id": 183, "properties": {"FCLASS": "6", "STTNKEY": "16000028", "CONFIDENCE": 3.0, "AADT": 1305, "STTNID": "000028", "YEAR_GEO": 2001.0, "STPOSTAL": "ID", "LONGITUDE": -114.41330388, "CTFIPS": "13", "VERSION": "01", "LOCATION": "7.5 MI. N. JCT SUN VALLEY SPUR, KETCHUM", "NHS": 0, "LATITUDE": 43.778323386399997, "STFIPS": "16"}},{"geometry": {"type": "Point", "coordinates": [-114.59444276332283, 42.213600188969167]}, "type": "Feature", "id": 184, "properties": {"FCLASS": "2", "STTNKEY": "16000029", "CONFIDENCE": 3.0, "AADT": 3746, "STTNID": "000029", "YEAR_GEO": 2001.0, "STPOSTAL": "ID", "LONGITUDE": -114.59444241, "CTFIPS": "83", "VERSION": "01", "LOCATION": "0.2 MILES SOUTH OF ROGERSON", "NHS": 7, "LATITUDE": 42.213599787900002, "STFIPS": "16"}},{"geometry": {"type": "Point", "coordinates": [-113.41141376222095, 42.508295189243654]}, "type": "Feature", "id": 185, "properties": {"FCLASS": "1", "STTNKEY": "16000030", "CONFIDENCE": 3.0, "AADT": 6916, "STTNID": "000030", "YEAR_GEO": 2001.0, "STPOSTAL": "ID", "LONGITUDE": -113.41141370299999, "CTFIPS": "31", "VERSION": "01", "LOCATION": "7.0 MILES SOUTH OF I-86 I.C., COTTERAL", "NHS": 1, "LATITUDE": 42.5082950185, "STFIPS": "16"}},{"geometry": {"type": "Point", "coordinates": [-111.34901276030018, 43.487308190155318]}, "type": "Feature", "id": 186, "properties": {"FCLASS": "7", "STTNKEY": "16000031", "CONFIDENCE": 3.0, "AADT": 1792, "STTNID": "000031", "YEAR_GEO": 2001.0, "STPOSTAL": "ID", "LONGITUDE": -111.34901263899999, "CTFIPS": "19", "VERSION": "01", "LOCATION": "3.5 MI. NORTH OF JCT US-26, SWAN VALLEY", "NHS": 0, "LATITUDE": 43.487308473799999, "STFIPS": "16"}},{"geometry": {"type": "Point", "coordinates": [-111.45497276039896, 44.308913190920521]}, "type": "Feature", "id": 187, "properties": {"FCLASS": "2", "STTNKEY": "16000032", "CONFIDENCE": 3.0, "AADT": 3382, "STTNID": "000032", "YEAR_GEO": 2001.0, "STPOSTAL": "ID", "LONGITUDE": -111.45497270200001, "CTFIPS": "43", "VERSION": "01", "LOCATION": "17.5 MILES NORTH OF JCT SH-32, ASHTON", "NHS": 7, "LATITUDE": 44.308913039700002, "STFIPS": "16"}},{"geometry": {"type": "Point", "coordinates": [-111.10042376006868, 42.349618189095736]}, "type": "Feature", "id": 188, "properties": {"FCLASS": "2", "STTNKEY": "16000034", "CONFIDENCE": 3.0, "AADT": 656, "STTNID": "000034", "YEAR_GEO": 2001.0, "STPOSTAL": "ID", "LONGITUDE": -111.100423858, "CTFIPS": "7", "VERSION": "01", "LOCATION": "2.8 MILES S.W. OF JCT SH-61, GENEVA", "NHS": 7, "LATITUDE": 42.349618007099998, "STFIPS": "16"}},{"geometry": {"type": "Point", "coordinates": [-111.94134876085195, 42.231834188986113]}, "type": "Feature", "id": 189, "properties": {"FCLASS": "6", "STTNKEY": "16000035", "CONFIDENCE": 3.0, "AADT": 1239, "STTNID": "000035", "YEAR_GEO": 2001.0, "STPOSTAL": "ID", "LONGITUDE": -111.94134865700001, "CTFIPS": "41", "VERSION": "01", "LOCATION": "10.6 MILES N.W. OF JCT SH-34, BANIDA", "NHS": 0, "LATITUDE": 42.231833708000003, "STFIPS": "16"}},{"geometry": {"type": "Point", "coordinates": [-111.17706576014007, 42.199047188955547]}, "type": "Feature", "id": 190, "properties": {"FCLASS": "2", "STTNKEY": "16000036", "CONFIDENCE": 3.0, "AADT": 1449, "STTNID": "000036", "YEAR_GEO": 2001.0, "STPOSTAL": "ID", "LONGITUDE": -111.177065782, "CTFIPS": "7", "VERSION": "01", "LOCATION": "11.4 MILES S.E. OF JCT US-89, BORDER", "NHS": 7, "LATITUDE": 42.199047340900002, "STFIPS": "16"}},{"geometry": {"type": "Point", "coordinates": [-116.85952776543218, 43.496134190163502]}, "type": "Feature", "id": 191, "properties": {"FCLASS": "2", "STTNKEY": "16000038", "CONFIDENCE": 3.0, "AADT": 1689, "STTNID": "000038", "YEAR_GEO": 2001.0, "STPOSTAL": "ID", "LONGITUDE": -116.859527808, "CTFIPS": "73", "VERSION": "01", "LOCATION": "3.6 MILES SOUTH OF JCT SH-55, MARSING", "NHS": 3, "LATITUDE": 43.496133880000002, "STFIPS": "16"}},{"geometry": {"type": "Point", "coordinates": [-116.20421576482204, 45.946069192445293]}, "type": "Feature", "id": 192, "properties": {"FCLASS": "2", "STTNKEY": "16000039", "CONFIDENCE": 3.0, "AADT": 3025, "STTNID": "000039", "YEAR_GEO": 2001.0, "STPOSTAL": "ID", "LONGITUDE": -116.204215648, "CTFIPS": "49", "VERSION": "01", "LOCATION": "0.1 MILE NORTHWEST OF FENN", "NHS": 7, "LATITUDE": 45.946068823300003, "STFIPS": "16"}},{"geometry": {"type": "Point", "coordinates": [-116.9277157654958, 47.793936194166236]}, "type": "Feature", "id": 193, "properties": {"FCLASS": "2", "STTNKEY": "16000040", "CONFIDENCE": 3.0, "AADT": 6918, "STTNID": "000040", "YEAR_GEO": 2001.0, "STPOSTAL": "ID", "LONGITUDE": -116.927715822, "CTFIPS": "55", "VERSION": "01", "LOCATION": "2.8 MILES S.W. OF JCT SH-41, RATHDRUM", "NHS": 0, "LATITUDE": 47.7939363805, "STFIPS": "16"}},{"geometry": {"type": "Point", "coordinates": [-116.87070576544261, 47.833514194202962]}, "type": "Feature", "id": 194, "properties": {"FCLASS": "6", "STTNKEY": "16000041", "CONFIDENCE": 3.0, "AADT": 9128, "STTNID": "000041", "YEAR_GEO": 2001.0, "STPOSTAL": "ID", "LONGITUDE": -116.87070568999999, "CTFIPS": "55", "VERSION": "01", "LOCATION": "1.2 MI. N. OF JCT SH-53, N. RATHDRUM", "NHS": 0, "LATITUDE": 47.833513870799997, "STFIPS": "16"}},{"geometry": {"type": "Point", "coordinates": [-116.68689676527151, 47.947927194309614]}, "type": "Feature", "id": 195, "properties": {"FCLASS": "7", "STTNKEY": "16000042", "CONFIDENCE": 3.0, "AADT": 2606, "STTNID": "000042", "YEAR_GEO": 2001.0, "STPOSTAL": "ID", "LONGITUDE": -116.68689695, "CTFIPS": "55", "VERSION": "01", "LOCATION": "0.5 MILE EAST OF JCT US-95, ATHOL", "NHS": 0, "LATITUDE": 47.947927668200002, "STFIPS": "16"}},{"geometry": {"type": "Point", "coordinates": [-113.42735276223584, 42.518984189253388]}, "type": "Feature", "id": 196, "properties": {"FCLASS": "1", "STTNKEY": "16000089", "CONFIDENCE": 3.0, "AADT": 7124, "STTNID": "000089", "YEAR_GEO": 2001.0, "STPOSTAL": "ID", "LONGITUDE": -113.42735264, "CTFIPS": "31", "VERSION": "01", "LOCATION": "0.4 MILES N.W. OF JCT SH-81 (YALE RD)", "NHS": 1, "LATITUDE": 42.518983892400001, "STFIPS": "16"}},{"geometry": {"type": "Point", "coordinates": [-116.44956976505046, 44.629195191218741]}, "type": "Feature", "id": 197, "properties": {"COMMENT": "Located at Mesa - Unable to find Mesa RD.", "FCLASS": "6", "CONFIDENCE": 1.0, "AADT": 5658, "STTNID": "000091", "YEAR_GEO": 1999.0, "STPOSTAL": "ID", "LONGITUDE": -116.449570112, "CTFIPS": "3", "LATITUDE": 44.629195003500001, "VERSION": "01", "LOCATION": "1.8 MI. N OF MESA RD", "NHS": 7, "STTNKEY": "16000091", "STFIPS": "16"}},{"geometry": {"type": "Point", "coordinates": [-113.42730976223584, 42.518958189253453]}, "type": "Feature", "id": 198, "properties": {"STTNKEY": "16000092", "CONFIDENCE": 3.0, "AADT": 0, "STTNID": "000092", "YEAR_GEO": 1999.0, "STPOSTAL": "ID", "LONGITUDE": -113.42730951999999, "CTFIPS": "31", "VERSION": "01", "LOCATION": "0.4 MILES N.W. OF JCT SH-81 (YALE RD)", "NHS": 1, "LATITUDE": 42.5189582159, "STFIPS": "16"}},{"geometry": {"type": "Point", "coordinates": [-116.61299776520264, 43.622114190280854]}, "type": "Feature", "id": 199, "properties": {"FCLASS": "11", "STTNKEY": "16000094", "CONFIDENCE": 3.0, "AADT": 38825, "STTNID": "000094", "YEAR_GEO": 2001.0, "STPOSTAL": "ID", "LONGITUDE": -116.61299749200001, "CTFIPS": "27", "VERSION": "01", "LOCATION": "2.6 MILES N.W. OF NAMPA BLVD. IC", "NHS": 1, "LATITUDE": 43.6221146647, "STFIPS": "16"}},{"geometry": {"type": "Point", "coordinates": [-116.65770276524427, 43.8951971905351]}, "type": "Feature", "id": 200, "properties": {"FCLASS": "6", "STTNKEY": "16000095", "CONFIDENCE": 3.0, "AADT": 2119, "STTNID": "000095", "YEAR_GEO": 2001.0, "STPOSTAL": "ID", "LONGITUDE": -116.657702521, "CTFIPS": "45", "VERSION": "01", "LOCATION": "3.6 MILES S.E. OF PAYETTE-GEM CO.LINE (LETHA)", "NHS": 0, "LATITUDE": 43.895197360700003, "STFIPS": "16"}},{"geometry": {"type": "Point", "coordinates": [-116.37779276498372, 44.872017191444911]}, "type": "Feature", "id": 201, "properties": {"STTNKEY": "16000097", "CONFIDENCE": 3.0, "AADT": 0, "STTNID": "000097", "YEAR_GEO": 1999.0, "STPOSTAL": "ID", "LONGITUDE": -116.37779304599999, "CTFIPS": "3", "VERSION": "01", "LOCATION": "13.5 MILES SOUTHWEST OF NEW MEADOWS", "NHS": 7, "LATITUDE": 44.872016928900003, "STFIPS": "16"}},{"geometry": {"type": "Point", "coordinates": [-116.94782076551451, 46.539411192997704]}, "type": "Feature", "id": 202, "properties": {"FCLASS": "2", "STTNKEY": "16000098", "CONFIDENCE": 3.0, "AADT": 5012, "STTNID": "000098", "YEAR_GEO": 2001.0, "STPOSTAL": "ID", "LONGITUDE": -116.94782059800001, "CTFIPS": "69", "VERSION": "01", "LOCATION": "0.2 MILES SOUTH OF NEZ PERCE/LATAH COUNTY LINE", "NHS": 7, "LATITUDE": 46.539410835600002, "STFIPS": "16"}},{"geometry": {"type": "Point", "coordinates": [-111.07597176004583, 43.57316619023527]}, "type": "Feature", "id": 203, "properties": {"FCLASS": "6", "STTNKEY": "16000102", "CONFIDENCE": 3.0, "AADT": 4339, "STTNID": "000102", "YEAR_GEO": 2001.0, "STPOSTAL": "ID", "LONGITUDE": -111.075971393, "CTFIPS": "81", "VERSION": "01", "LOCATION": "2.8 MI. SE OF JCT SH-31, VICTOR", "NHS": 0, "LATITUDE": 43.573166176000001, "STFIPS": "16"}},{"geometry": {"type": "Point", "coordinates": [-114.88911376359715, 42.923680189630431]}, "type": "Feature", "id": 204, "properties": {"FCLASS": "6", "STTNKEY": "16000104", "CONFIDENCE": 3.0, "AADT": 1415, "STTNID": "000104", "YEAR_GEO": 2001.0, "STPOSTAL": "ID", "LONGITUDE": -114.889113795, "CTFIPS": "47", "VERSION": "01", "LOCATION": "2.2 MILES E. OF JCT I-84 (GOODING)", "NHS": 0, "LATITUDE": 42.923680631300002, "STFIPS": "16"}},{"geometry": {"type": "Point", "coordinates": [-114.26925876301993, 42.533390189266811]}, "type": "Feature", "id": 205, "properties": {"FCLASS": "6", "STTNKEY": "16000105", "CONFIDENCE": 3.0, "AADT": 1958, "STTNID": "000105", "YEAR_GEO": 2001.0, "STPOSTAL": "ID", "LONGITUDE": -114.269259236, "CTFIPS": "83", "VERSION": "01", "LOCATION": "1.8 MILES E. OF HANSEN", "NHS": 0, "LATITUDE": 42.533390093500003, "STFIPS": "16"}},{"geometry": {"type": "Point", "coordinates": [-116.37521576498125, 43.067361189764142]}, "type": "Feature", "id": 206, "properties": {"FCLASS": "7", "STTNKEY": "16000107", "CONFIDENCE": 3.0, "AADT": 523, "STTNID": "000107", "YEAR_GEO": 2001.0, "STPOSTAL": "ID", "LONGITUDE": -116.375215868, "CTFIPS": "73", "VERSION": "01", "LOCATION": "16.0 MILES NORTHWEST OF GRAND VIEW CITY LIMITS", "NHS": 0, "LATITUDE": 43.067361574899998, "STFIPS": "16"}},{"geometry": {"type": "Point", "coordinates": [-116.05006976467848, 44.690945191276342]}, "type": "Feature", "id": 207, "properties": {"FCLASS": "2", "STTNKEY": "16000043", "CONFIDENCE": 3.0, "AADT": 4273, "STTNID": "000043", "YEAR_GEO": 2001.0, "STPOSTAL": "ID", "LONGITUDE": -116.05006935199999, "CTFIPS": "85", "VERSION": "01", "LOCATION": "3.2 MILES SOUTH OF DONNELLY", "NHS": 7, "LATITUDE": 44.690944995800002, "STFIPS": "16"}},{"geometry": {"type": "Point", "coordinates": [-116.92171476549015, 44.201217190820216]}, "type": "Feature", "id": 208, "properties": {"FCLASS": "2", "STTNKEY": "16000044", "CONFIDENCE": 3.0, "AADT": 5987, "STTNID": "000044", "YEAR_GEO": 2001.0, "STPOSTAL": "ID", "LONGITUDE": -116.921715061, "CTFIPS": "87", "VERSION": "01", "LOCATION": "3.6 MILES SOUTH OF WEISER", "NHS": 7, "LATITUDE": 44.2012167038, "STFIPS": "16"}},{"geometry": {"type": "Point", "coordinates": [-116.39642276500103, 46.885434193320179]}, "type": "Feature", "id": 209, "properties": {"FCLASS": "6", "STTNKEY": "16000045", "CONFIDENCE": 3.0, "AADT": 592, "STTNID": "000045", "YEAR_GEO": 2001.0, "STPOSTAL": "ID", "LONGITUDE": -116.396422788, "CTFIPS": "57", "VERSION": "01", "LOCATION": "2.1 MILE NORTH OF JCT SH-8, BOVILL", "NHS": 0, "LATITUDE": 46.885434357999998, "STFIPS": "16"}},{"geometry": {"type": "Point", "coordinates": [-116.31068976492111, 48.942287195235622]}, "type": "Feature", "id": 210, "properties": {"FCLASS": "2", "STTNKEY": "16000046", "CONFIDENCE": 3.0, "AADT": 1018, "STTNID": "000046", "YEAR_GEO": 2001.0, "STPOSTAL": "ID", "LONGITUDE": -116.310689952, "CTFIPS": "21", "VERSION": "01", "LOCATION": "4.4 MILES N.E. OF JCT SH-1, COPELAND", "NHS": 7, "LATITUDE": 48.9422868081, "STFIPS": "16"}},{"geometry": {"type": "Point", "coordinates": [-116.99082476555463, 48.180715194526329]}, "type": "Feature", "id": 211, "properties": {"FCLASS": "2", "STTNKEY": "16000047", "CONFIDENCE": 3.0, "AADT": 7943, "STTNID": "000047", "YEAR_GEO": 2001.0, "STPOSTAL": "ID", "LONGITUDE": -116.990824922, "CTFIPS": "17", "VERSION": "01", "LOCATION": "2.6 MI E ID/WASH STATE LN, PRIEST RIVER", "NHS": 7, "LATITUDE": 48.180715058200001, "STFIPS": "16"}},{"geometry": {"type": "Point", "coordinates": [-116.29586476490726, 45.502016192031761]}, "type": "Feature", "id": 212, "properties": {"FCLASS": "2", "STTNKEY": "16000049", "CONFIDENCE": 3.0, "AADT": 2022, "STTNID": "000049", "YEAR_GEO": 2001.0, "STPOSTAL": "ID", "LONGITUDE": -116.295864361, "CTFIPS": "49", "VERSION": "01", "LOCATION": "6.7 MILES NORTH OF RIGGINS", "NHS": 7, "LATITUDE": 45.502016038900003, "STFIPS": "16"}},{"geometry": {"type": "Point", "coordinates": [-113.54708376234726, 43.470166190139253]}, "type": "Feature", "id": 213, "properties": {"FCLASS": "2", "STTNKEY": "16000050", "CONFIDENCE": 2.0, "AADT": 1144, "STTNID": "000050", "YEAR_GEO": 2001.0, "STPOSTAL": "ID", "LONGITUDE": -113.547084028, "CTFIPS": "23", "VERSION": "01", "LOCATION": "0.1 MILE N.E. OF CRATERS OF THE MOON", "NHS": 7, "LATITUDE": 43.470166046899998, "STFIPS": "16"}},{"geometry": {"type": "Point", "coordinates": [-111.87143976078664, 43.727348190378962]}, "type": "Feature", "id": 214, "properties": {"FCLASS": "2", "STTNKEY": "16000051", "CONFIDENCE": 3.0, "AADT": 18856, "STTNID": "000051", "YEAR_GEO": 2001.0, "STPOSTAL": "ID", "LONGITUDE": -111.87143939400001, "CTFIPS": "51", "VERSION": "01", "LOCATION": "0.35 MI. S. OF SNAKE R. BRIDGE, LORENZO", "NHS": 7, "LATITUDE": 43.727348657999997, "STFIPS": "16"}},{"geometry": {"type": "Point", "coordinates": [-116.07618276470271, 43.531826190196853]}, "type": "Feature", "id": 215, "properties": {"STTNKEY": "16000052", "CONFIDENCE": 2.0, "AADT": 0, "STTNID": "000052", "YEAR_GEO": 2000.0, "STPOSTAL": "ID", "LONGITUDE": -116.076182647, "CTFIPS": "1", "VERSION": "01", "LOCATION": "3.9 MILES S.E. OF BOISE, BARBER RD.", "NHS": 0, "LATITUDE": 43.531826242000001, "STFIPS": "16"}},{"geometry": {"type": "Point", "coordinates": [-115.98649076461925, 43.63544119029325]}, "type": "Feature", "id": 216, "properties": {"FCLASS": "6", "STTNKEY": "16000053", "CONFIDENCE": 3.0, "AADT": 3255, "STTNID": "000053", "YEAR_GEO": 2001.0, "STPOSTAL": "ID", "LONGITUDE": -115.986490981, "CTFIPS": "15", "VERSION": "01", "LOCATION": "3.2 MI. N. BOISE/ADA CO. LN, ROBIE CREEK", "NHS": 0, "LATITUDE": 43.635440851200002, "STFIPS": "16"}},{"geometry": {"type": "Point", "coordinates": [-115.56380476422555, 43.194373189882526]}, "type": "Feature", "id": 217, "properties": {"FCLASS": "2", "STTNKEY": "16000054", "CONFIDENCE": 3.0, "AADT": 1954, "STTNID": "000054", "YEAR_GEO": 2001.0, "STPOSTAL": "ID", "LONGITUDE": -115.563804511, "CTFIPS": "39", "VERSION": "01", "LOCATION": "6.7 MI. N. E. OF JCT I-84, MOUNTAIN HOME", "NHS": 7, "LATITUDE": 43.194373082399999, "STFIPS": "16"}},{"geometry": {"type": "Point", "coordinates": [-113.88025776265749, 44.110531190735855]}, "type": "Feature", "id": 218, "properties": {"FCLASS": "2", "STTNKEY": "16000055", "CONFIDENCE": 3.0, "AADT": 568, "STTNID": "000055", "YEAR_GEO": 2001.0, "STPOSTAL": "ID", "LONGITUDE": -113.88025798699999, "CTFIPS": "37", "VERSION": "01", "LOCATION": "1.9 MI. SOUTH OF DICKEY", "NHS": 7, "LATITUDE": 44.110531484500001, "STFIPS": "16"}},{"geometry": {"type": "Point", "coordinates": [-112.87449676172082, 43.798806190445475]}, "type": "Feature", "id": 219, "properties": {"FCLASS": "6", "STTNKEY": "16000056", "CONFIDENCE": 3.0, "AADT": 532, "STTNID": "000056", "YEAR_GEO": 2001.0, "STPOSTAL": "ID", "LONGITUDE": -112.874496327, "CTFIPS": "23", "VERSION": "01", "LOCATION": "6.6 MILES EAST OF HOWE", "NHS": 0, "LATITUDE": 43.7988057954, "STFIPS": "16"}},{"geometry": {"type": "Point", "coordinates": [-112.28020076116741, 43.531060190196058]}, "type": "Feature", "id": 220, "properties": {"FCLASS": "2", "STTNKEY": "16000057", "CONFIDENCE": 3.0, "AADT": 2406, "STTNID": "000057", "YEAR_GEO": 2001.0, "STPOSTAL": "ID", "LONGITUDE": -112.28020097, "CTFIPS": "19", "VERSION": "01", "LOCATION": "11.9 MI. W. OF JCT I-15, KETTLE BUTTE", "NHS": 7, "LATITUDE": 43.531060420599999, "STFIPS": "16"}},{"geometry": {"type": "Point", "coordinates": [-113.37603876218805, 44.692231191277415]}, "type": "Feature", "id": 221, "properties": {"FCLASS": "6", "STTNKEY": "16000058", "CONFIDENCE": 3.0, "AADT": 541, "STTNID": "000058", "YEAR_GEO": 2001.0, "STPOSTAL": "ID", "LONGITUDE": -113.376038683, "CTFIPS": "59", "VERSION": "01", "LOCATION": "0.1 MILE SOUTHEAST OF LEADORE", "NHS": 0, "LATITUDE": 44.692230996200003, "STFIPS": "16"}},{"geometry": {"type": "Point", "coordinates": [-111.51143576045138, 43.876897190518093]}, "type": "Feature", "id": 222, "properties": {"FCLASS": "6", "STTNKEY": "16000059", "CONFIDENCE": 3.0, "AADT": 2090, "STTNID": "000059", "YEAR_GEO": 2001.0, "STPOSTAL": "ID", "LONGITUDE": -111.511436089, "CTFIPS": "65", "VERSION": "01", "LOCATION": "3.1 MILES EAST OF NEWDALE", "NHS": 0, "LATITUDE": 43.876897584399998, "STFIPS": "16"}},{"geometry": {"type": "Point", "coordinates": [-111.71035876063684, 42.649512189375173]}, "type": "Feature", "id": 223, "properties": {"FCLASS": "2", "STTNKEY": "16000060", "CONFIDENCE": 3.0, "AADT": 4553, "STTNID": "000060", "YEAR_GEO": 2001.0, "STPOSTAL": "ID", "LONGITUDE": -111.710358958, "CTFIPS": "29", "VERSION": "01", "LOCATION": "0.9 MILE EAST OF JCT SH-34, ALEXANDER", "NHS": 7, "LATITUDE": 42.6495117017, "STFIPS": "16"}},{"geometry": {"type": "Point", "coordinates": [-112.12191576102009, 43.692708190346593]},